[
  {
    "id": 3901,
    "name": "Badakhshan",
    "country_id": 1,
    "country_code": "AF",
    "country_name": "Afghanistan",
    "state_code": "BDS",
    "type": "",
    "latitude": 36.7347725,
    "longitude": 70.8119953
  },
  {
    "id": 3871,
    "name": "Badghis",
    "country_id": 1,
    "country_code": "AF",
    "country_name": "Afghanistan",
    "state_code": "BDG",
    "type": "",
    "latitude": 35.1671339,
    "longitude": 63.7695384
  },
  {
    "id": 3875,
    "name": "Baghlan",
    "country_id": 1,
    "country_code": "AF",
    "country_name": "Afghanistan",
    "state_code": "BGL",
    "type": "",
    "latitude": 36.1789026,
    "longitude": 68.7453064
  },
  {
    "id": 3884,
    "name": "Balkh",
    "country_id": 1,
    "country_code": "AF",
    "country_name": "Afghanistan",
    "state_code": "BAL",
    "type": "",
    "latitude": 36.7550603,
    "longitude": 66.8975372
  },
  {
    "id": 3872,
    "name": "Bamyan",
    "country_id": 1,
    "country_code": "AF",
    "country_name": "Afghanistan",
    "state_code": "BAM",
    "type": "",
    "latitude": 34.8100067,
    "longitude": 67.8212104
  },
  {
    "id": 3892,
    "name": "Daykundi",
    "country_id": 1,
    "country_code": "AF",
    "country_name": "Afghanistan",
    "state_code": "DAY",
    "type": "",
    "latitude": 33.669495,
    "longitude": 66.0463534
  },
  {
    "id": 3899,
    "name": "Farah",
    "country_id": 1,
    "country_code": "AF",
    "country_name": "Afghanistan",
    "state_code": "FRA",
    "type": "",
    "latitude": 32.495328,
    "longitude": 62.2626627
  },
  {
    "id": 3889,
    "name": "Faryab",
    "country_id": 1,
    "country_code": "AF",
    "country_name": "Afghanistan",
    "state_code": "FYB",
    "type": "",
    "latitude": 36.0795613,
    "longitude": 64.905955
  },
  {
    "id": 3870,
    "name": "Ghazni",
    "country_id": 1,
    "country_code": "AF",
    "country_name": "Afghanistan",
    "state_code": "GHA",
    "type": "",
    "latitude": 33.5450587,
    "longitude": 68.4173972
  },
  {
    "id": 3888,
    "name": "Ghōr",
    "country_id": 1,
    "country_code": "AF",
    "country_name": "Afghanistan",
    "state_code": "GHO",
    "type": "",
    "latitude": 34.0995776,
    "longitude": 64.905955
  },
  {
    "id": 3873,
    "name": "Helmand",
    "country_id": 1,
    "country_code": "AF",
    "country_name": "Afghanistan",
    "state_code": "HEL",
    "type": "",
    "latitude": 39.2989361,
    "longitude": -76.6160472
  },
  {
    "id": 3887,
    "name": "Herat",
    "country_id": 1,
    "country_code": "AF",
    "country_name": "Afghanistan",
    "state_code": "HER",
    "type": "",
    "latitude": 34.352865,
    "longitude": 62.2040287
  },
  {
    "id": 3886,
    "name": "Jowzjan",
    "country_id": 1,
    "country_code": "AF",
    "country_name": "Afghanistan",
    "state_code": "JOW",
    "type": "",
    "latitude": 36.8969692,
    "longitude": 65.6658568
  },
  {
    "id": 3902,
    "name": "Kabul",
    "country_id": 1,
    "country_code": "AF",
    "country_name": "Afghanistan",
    "state_code": "KAB",
    "type": "",
    "latitude": 34.5553494,
    "longitude": 69.207486
  },
  {
    "id": 3890,
    "name": "Kandahar",
    "country_id": 1,
    "country_code": "AF",
    "country_name": "Afghanistan",
    "state_code": "KAN",
    "type": "",
    "latitude": 31.628871,
    "longitude": 65.7371749
  },
  {
    "id": 3879,
    "name": "Kapisa",
    "country_id": 1,
    "country_code": "AF",
    "country_name": "Afghanistan",
    "state_code": "KAP",
    "type": "",
    "latitude": 34.9810572,
    "longitude": 69.6214562
  },
  {
    "id": 3878,
    "name": "Khost",
    "country_id": 1,
    "country_code": "AF",
    "country_name": "Afghanistan",
    "state_code": "KHO",
    "type": "",
    "latitude": 33.3338472,
    "longitude": 69.9371673
  },
  {
    "id": 3876,
    "name": "Kunar",
    "country_id": 1,
    "country_code": "AF",
    "country_name": "Afghanistan",
    "state_code": "KNR",
    "type": "",
    "latitude": 34.8465893,
    "longitude": 71.097317
  },
  {
    "id": 3900,
    "name": "Kunduz Province",
    "country_id": 1,
    "country_code": "AF",
    "country_name": "Afghanistan",
    "state_code": "KDZ",
    "type": "",
    "latitude": 36.7285511,
    "longitude": 68.8678982
  },
  {
    "id": 3891,
    "name": "Laghman",
    "country_id": 1,
    "country_code": "AF",
    "country_name": "Afghanistan",
    "state_code": "LAG",
    "type": "",
    "latitude": 34.6897687,
    "longitude": 70.1455805
  },
  {
    "id": 3897,
    "name": "Logar",
    "country_id": 1,
    "country_code": "AF",
    "country_name": "Afghanistan",
    "state_code": "LOG",
    "type": "",
    "latitude": 34.0145518,
    "longitude": 69.1923916
  },
  {
    "id": 3882,
    "name": "Nangarhar",
    "country_id": 1,
    "country_code": "AF",
    "country_name": "Afghanistan",
    "state_code": "NAN",
    "type": "",
    "latitude": 34.1718313,
    "longitude": 70.6216794
  },
  {
    "id": 3896,
    "name": "Nimruz",
    "country_id": 1,
    "country_code": "AF",
    "country_name": "Afghanistan",
    "state_code": "NIM",
    "type": "",
    "latitude": 31.0261488,
    "longitude": 62.4504154
  },
  {
    "id": 3880,
    "name": "Nuristan",
    "country_id": 1,
    "country_code": "AF",
    "country_name": "Afghanistan",
    "state_code": "NUR",
    "type": "",
    "latitude": 35.3250223,
    "longitude": 70.9071236
  },
  {
    "id": 3894,
    "name": "Paktia",
    "country_id": 1,
    "country_code": "AF",
    "country_name": "Afghanistan",
    "state_code": "PIA",
    "type": "",
    "latitude": 33.706199,
    "longitude": 69.3831079
  },
  {
    "id": 3877,
    "name": "Paktika",
    "country_id": 1,
    "country_code": "AF",
    "country_name": "Afghanistan",
    "state_code": "PKA",
    "type": "",
    "latitude": 32.2645386,
    "longitude": 68.5247149
  },
  {
    "id": 3881,
    "name": "Panjshir",
    "country_id": 1,
    "country_code": "AF",
    "country_name": "Afghanistan",
    "state_code": "PAN",
    "type": "",
    "latitude": 38.8802391,
    "longitude": -77.1717238
  },
  {
    "id": 3895,
    "name": "Parwan",
    "country_id": 1,
    "country_code": "AF",
    "country_name": "Afghanistan",
    "state_code": "PAR",
    "type": "",
    "latitude": 34.9630977,
    "longitude": 68.8108849
  },
  {
    "id": 3883,
    "name": "Samangan",
    "country_id": 1,
    "country_code": "AF",
    "country_name": "Afghanistan",
    "state_code": "SAM",
    "type": "",
    "latitude": 36.3155506,
    "longitude": 67.9642863
  },
  {
    "id": 3885,
    "name": "Sar-e Pol",
    "country_id": 1,
    "country_code": "AF",
    "country_name": "Afghanistan",
    "state_code": "SAR",
    "type": "",
    "latitude": 36.216628,
    "longitude": 65.93336
  },
  {
    "id": 3893,
    "name": "Takhar",
    "country_id": 1,
    "country_code": "AF",
    "country_name": "Afghanistan",
    "state_code": "TAK",
    "type": "",
    "latitude": 36.6698013,
    "longitude": 69.4784541
  },
  {
    "id": 3898,
    "name": "Urozgan",
    "country_id": 1,
    "country_code": "AF",
    "country_name": "Afghanistan",
    "state_code": "URU",
    "type": "",
    "latitude": 32.9271287,
    "longitude": 66.1415263
  },
  {
    "id": 3874,
    "name": "Zabul",
    "country_id": 1,
    "country_code": "AF",
    "country_name": "Afghanistan",
    "state_code": "ZAB",
    "type": "",
    "latitude": 32.1918782,
    "longitude": 67.1894488
  },
  {
    "id": 603,
    "name": "Berat County",
    "country_id": 3,
    "country_code": "AL",
    "country_name": "Albania",
    "state_code": "01",
    "type": "",
    "latitude": 40.6953012,
    "longitude": 20.0449662
  },
  {
    "id": 629,
    "name": "Berat District",
    "country_id": 3,
    "country_code": "AL",
    "country_name": "Albania",
    "state_code": "BR",
    "type": "",
    "latitude": 40.7086377,
    "longitude": 19.9437314
  },
  {
    "id": 607,
    "name": "Bulqizë District",
    "country_id": 3,
    "country_code": "AL",
    "country_name": "Albania",
    "state_code": "BU",
    "type": "",
    "latitude": 41.4942587,
    "longitude": 20.2147157
  },
  {
    "id": 618,
    "name": "Delvinë District",
    "country_id": 3,
    "country_code": "AL",
    "country_name": "Albania",
    "state_code": "DL",
    "type": "",
    "latitude": 39.9481364,
    "longitude": 20.0955891
  },
  {
    "id": 608,
    "name": "Devoll District",
    "country_id": 3,
    "country_code": "AL",
    "country_name": "Albania",
    "state_code": "DV",
    "type": "",
    "latitude": 40.6447347,
    "longitude": 20.9506636
  },
  {
    "id": 610,
    "name": "Dibër County",
    "country_id": 3,
    "country_code": "AL",
    "country_name": "Albania",
    "state_code": "09",
    "type": "",
    "latitude": 41.5888163,
    "longitude": 20.2355647
  },
  {
    "id": 605,
    "name": "Dibër District",
    "country_id": 3,
    "country_code": "AL",
    "country_name": "Albania",
    "state_code": "DI",
    "type": "",
    "latitude": 41.5888163,
    "longitude": 20.2355647
  },
  {
    "id": 632,
    "name": "Durrës County",
    "country_id": 3,
    "country_code": "AL",
    "country_name": "Albania",
    "state_code": "02",
    "type": "",
    "latitude": 41.5080972,
    "longitude": 19.6163185
  },
  {
    "id": 639,
    "name": "Durrës District",
    "country_id": 3,
    "country_code": "AL",
    "country_name": "Albania",
    "state_code": "DR",
    "type": "",
    "latitude": 41.3706517,
    "longitude": 19.5211063
  },
  {
    "id": 598,
    "name": "Elbasan County",
    "country_id": 3,
    "country_code": "AL",
    "country_name": "Albania",
    "state_code": "03",
    "type": "",
    "latitude": 41.1266672,
    "longitude": 20.2355647
  },
  {
    "id": 631,
    "name": "Fier County",
    "country_id": 3,
    "country_code": "AL",
    "country_name": "Albania",
    "state_code": "04",
    "type": "",
    "latitude": 40.9191392,
    "longitude": 19.6639309
  },
  {
    "id": 627,
    "name": "Fier District",
    "country_id": 3,
    "country_code": "AL",
    "country_name": "Albania",
    "state_code": "FR",
    "type": "",
    "latitude": 40.727504,
    "longitude": 19.5627596
  },
  {
    "id": 604,
    "name": "Gjirokastër County",
    "country_id": 3,
    "country_code": "AL",
    "country_name": "Albania",
    "state_code": "05",
    "type": "",
    "latitude": 40.0672874,
    "longitude": 20.1045229
  },
  {
    "id": 621,
    "name": "Gjirokastër District",
    "country_id": 3,
    "country_code": "AL",
    "country_name": "Albania",
    "state_code": "GJ",
    "type": "",
    "latitude": 40.0672874,
    "longitude": 20.1045229
  },
  {
    "id": 617,
    "name": "Gramsh District",
    "country_id": 3,
    "country_code": "AL",
    "country_name": "Albania",
    "state_code": "GR",
    "type": "",
    "latitude": 40.8669873,
    "longitude": 20.1849323
  },
  {
    "id": 600,
    "name": "Has District",
    "country_id": 3,
    "country_code": "AL",
    "country_name": "Albania",
    "state_code": "HA",
    "type": "",
    "latitude": 42.7901336,
    "longitude": -83.6122012
  },
  {
    "id": 594,
    "name": "Kavajë District",
    "country_id": 3,
    "country_code": "AL",
    "country_name": "Albania",
    "state_code": "KA",
    "type": "",
    "latitude": 41.1844529,
    "longitude": 19.5627596
  },
  {
    "id": 628,
    "name": "Kolonjë District",
    "country_id": 3,
    "country_code": "AL",
    "country_name": "Albania",
    "state_code": "ER",
    "type": "",
    "latitude": 40.3373262,
    "longitude": 20.6794676
  },
  {
    "id": 630,
    "name": "Korçë County",
    "country_id": 3,
    "country_code": "AL",
    "country_name": "Albania",
    "state_code": "06",
    "type": "",
    "latitude": 40.590567,
    "longitude": 20.6168921
  },
  {
    "id": 597,
    "name": "Korçë District",
    "country_id": 3,
    "country_code": "AL",
    "country_name": "Albania",
    "state_code": "KO",
    "type": "",
    "latitude": 40.590567,
    "longitude": 20.6168921
  },
  {
    "id": 614,
    "name": "Krujë District",
    "country_id": 3,
    "country_code": "AL",
    "country_name": "Albania",
    "state_code": "KR",
    "type": "",
    "latitude": 41.5094765,
    "longitude": 19.7710732
  },
  {
    "id": 612,
    "name": "Kuçovë District",
    "country_id": 3,
    "country_code": "AL",
    "country_name": "Albania",
    "state_code": "KC",
    "type": "",
    "latitude": 40.7837063,
    "longitude": 19.8782348
  },
  {
    "id": 601,
    "name": "Kukës County",
    "country_id": 3,
    "country_code": "AL",
    "country_name": "Albania",
    "state_code": "07",
    "type": "",
    "latitude": 42.0807464,
    "longitude": 20.4142923
  },
  {
    "id": 623,
    "name": "Kukës District",
    "country_id": 3,
    "country_code": "AL",
    "country_name": "Albania",
    "state_code": "KU",
    "type": "",
    "latitude": 42.0807464,
    "longitude": 20.4142923
  },
  {
    "id": 622,
    "name": "Kurbin District",
    "country_id": 3,
    "country_code": "AL",
    "country_name": "Albania",
    "state_code": "KB",
    "type": "",
    "latitude": 41.6412644,
    "longitude": 19.705595
  },
  {
    "id": 609,
    "name": "Lezhë County",
    "country_id": 3,
    "country_code": "AL",
    "country_name": "Albania",
    "state_code": "08",
    "type": "",
    "latitude": 41.7813759,
    "longitude": 19.8067916
  },
  {
    "id": 595,
    "name": "Lezhë District",
    "country_id": 3,
    "country_code": "AL",
    "country_name": "Albania",
    "state_code": "LE",
    "type": "",
    "latitude": 41.786073,
    "longitude": 19.6460758
  },
  {
    "id": 596,
    "name": "Librazhd District",
    "country_id": 3,
    "country_code": "AL",
    "country_name": "Albania",
    "state_code": "LB",
    "type": "",
    "latitude": 41.1829232,
    "longitude": 20.3174769
  },
  {
    "id": 599,
    "name": "Lushnjë District",
    "country_id": 3,
    "country_code": "AL",
    "country_name": "Albania",
    "state_code": "LU",
    "type": "",
    "latitude": 40.941983,
    "longitude": 19.6996428
  },
  {
    "id": 602,
    "name": "Malësi e Madhe District",
    "country_id": 3,
    "country_code": "AL",
    "country_name": "Albania",
    "state_code": "MM",
    "type": "",
    "latitude": 42.4245173,
    "longitude": 19.6163185
  },
  {
    "id": 637,
    "name": "Mallakastër District",
    "country_id": 3,
    "country_code": "AL",
    "country_name": "Albania",
    "state_code": "MK",
    "type": "",
    "latitude": 40.5273376,
    "longitude": 19.7829791
  },
  {
    "id": 635,
    "name": "Mat District",
    "country_id": 3,
    "country_code": "AL",
    "country_name": "Albania",
    "state_code": "MT",
    "type": "",
    "latitude": 41.5937675,
    "longitude": 19.9973244
  },
  {
    "id": 638,
    "name": "Mirditë District",
    "country_id": 3,
    "country_code": "AL",
    "country_name": "Albania",
    "state_code": "MR",
    "type": "",
    "latitude": 41.764286,
    "longitude": 19.9020509
  },
  {
    "id": 619,
    "name": "Peqin District",
    "country_id": 3,
    "country_code": "AL",
    "country_name": "Albania",
    "state_code": "PQ",
    "type": "",
    "latitude": 41.0470902,
    "longitude": 19.7502384
  },
  {
    "id": 625,
    "name": "Përmet District",
    "country_id": 3,
    "country_code": "AL",
    "country_name": "Albania",
    "state_code": "PR",
    "type": "",
    "latitude": 40.2361837,
    "longitude": 20.3517334
  },
  {
    "id": 606,
    "name": "Pogradec District",
    "country_id": 3,
    "country_code": "AL",
    "country_name": "Albania",
    "state_code": "PG",
    "type": "",
    "latitude": 40.9015314,
    "longitude": 20.6556289
  },
  {
    "id": 620,
    "name": "Pukë District",
    "country_id": 3,
    "country_code": "AL",
    "country_name": "Albania",
    "state_code": "PU",
    "type": "",
    "latitude": 42.0469772,
    "longitude": 19.8960968
  },
  {
    "id": 624,
    "name": "Sarandë District",
    "country_id": 3,
    "country_code": "AL",
    "country_name": "Albania",
    "state_code": "SR",
    "type": "",
    "latitude": 39.8592119,
    "longitude": 20.0271001
  },
  {
    "id": 611,
    "name": "Shkodër County",
    "country_id": 3,
    "country_code": "AL",
    "country_name": "Albania",
    "state_code": 10,
    "type": "",
    "latitude": 42.150371,
    "longitude": 19.6639309
  },
  {
    "id": 626,
    "name": "Shkodër District",
    "country_id": 3,
    "country_code": "AL",
    "country_name": "Albania",
    "state_code": "SH",
    "type": "",
    "latitude": 42.0692985,
    "longitude": 19.5032559
  },
  {
    "id": 593,
    "name": "Skrapar District",
    "country_id": 3,
    "country_code": "AL",
    "country_name": "Albania",
    "state_code": "SK",
    "type": "",
    "latitude": 40.5349946,
    "longitude": 20.2832217
  },
  {
    "id": 616,
    "name": "Tepelenë District",
    "country_id": 3,
    "country_code": "AL",
    "country_name": "Albania",
    "state_code": "TE",
    "type": "",
    "latitude": 40.2966632,
    "longitude": 20.0181673
  },
  {
    "id": 615,
    "name": "Tirana County",
    "country_id": 3,
    "country_code": "AL",
    "country_name": "Albania",
    "state_code": 11,
    "type": "",
    "latitude": 41.2427598,
    "longitude": 19.8067916
  },
  {
    "id": 633,
    "name": "Tirana District",
    "country_id": 3,
    "country_code": "AL",
    "country_name": "Albania",
    "state_code": "TR",
    "type": "",
    "latitude": 41.3275459,
    "longitude": 19.8186982
  },
  {
    "id": 636,
    "name": "Tropojë District",
    "country_id": 3,
    "country_code": "AL",
    "country_name": "Albania",
    "state_code": "TP",
    "type": "",
    "latitude": 42.3982151,
    "longitude": 20.1625955
  },
  {
    "id": 634,
    "name": "Vlorë County",
    "country_id": 3,
    "country_code": "AL",
    "country_name": "Albania",
    "state_code": 12,
    "type": "",
    "latitude": 40.150096,
    "longitude": 19.8067916
  },
  {
    "id": 613,
    "name": "Vlorë District",
    "country_id": 3,
    "country_code": "AL",
    "country_name": "Albania",
    "state_code": "VL",
    "type": "",
    "latitude": 40.4660668,
    "longitude": 19.491356
  },
  {
    "id": 1118,
    "name": "Adrar",
    "country_id": 4,
    "country_code": "DZ",
    "country_name": "Algeria",
    "state_code": "01",
    "type": "",
    "latitude": 26.418131,
    "longitude": -0.6014717
  },
  {
    "id": 1119,
    "name": "Aïn Defla",
    "country_id": 4,
    "country_code": "DZ",
    "country_name": "Algeria",
    "state_code": 44,
    "type": "",
    "latitude": 36.2509429,
    "longitude": 1.9393815
  },
  {
    "id": 1122,
    "name": "Aïn Témouchent",
    "country_id": 4,
    "country_code": "DZ",
    "country_name": "Algeria",
    "state_code": 46,
    "type": "",
    "latitude": 35.2992698,
    "longitude": -1.1392792
  },
  {
    "id": 1144,
    "name": "Algiers",
    "country_id": 4,
    "country_code": "DZ",
    "country_name": "Algeria",
    "state_code": 16,
    "type": "",
    "latitude": 36.6997294,
    "longitude": 3.0576199
  },
  {
    "id": 1103,
    "name": "Annaba",
    "country_id": 4,
    "country_code": "DZ",
    "country_name": "Algeria",
    "state_code": 23,
    "type": "",
    "latitude": 36.8020508,
    "longitude": 7.5247243
  },
  {
    "id": 1142,
    "name": "Batna",
    "country_id": 4,
    "country_code": "DZ",
    "country_name": "Algeria",
    "state_code": "05",
    "type": "",
    "latitude": 35.5965954,
    "longitude": 5.8987139
  },
  {
    "id": 1108,
    "name": "Béchar",
    "country_id": 4,
    "country_code": "DZ",
    "country_name": "Algeria",
    "state_code": "08",
    "type": "",
    "latitude": 31.6238098,
    "longitude": -2.2162443
  },
  {
    "id": 1128,
    "name": "Béjaïa",
    "country_id": 4,
    "country_code": "DZ",
    "country_name": "Algeria",
    "state_code": "06",
    "type": "",
    "latitude": 36.7515258,
    "longitude": 5.0556837
  },
  {
    "id": 4909,
    "name": "Béni Abbès",
    "country_id": 4,
    "country_code": "DZ",
    "country_name": "Algeria",
    "state_code": 53,
    "type": "",
    "latitude": 30.0831042,
    "longitude": -2.8345052
  },
  {
    "id": 1114,
    "name": "Biskra",
    "country_id": 4,
    "country_code": "DZ",
    "country_name": "Algeria",
    "state_code": "07",
    "type": "",
    "latitude": 34.8449437,
    "longitude": 5.7248567
  },
  {
    "id": 1111,
    "name": "Blida",
    "country_id": 4,
    "country_code": "DZ",
    "country_name": "Algeria",
    "state_code": "09",
    "type": "",
    "latitude": 36.531123,
    "longitude": 2.8976254
  },
  {
    "id": 4908,
    "name": "Bordj Baji Mokhtar",
    "country_id": 4,
    "country_code": "DZ",
    "country_name": "Algeria",
    "state_code": 52,
    "type": "",
    "latitude": 22.966335,
    "longitude": -3.9472732
  },
  {
    "id": 1116,
    "name": "Bordj Bou Arréridj",
    "country_id": 4,
    "country_code": "DZ",
    "country_name": "Algeria",
    "state_code": 34,
    "type": "",
    "latitude": 36.0739925,
    "longitude": 4.7630271
  },
  {
    "id": 1104,
    "name": "Bouïra",
    "country_id": 4,
    "country_code": "DZ",
    "country_name": "Algeria",
    "state_code": 10,
    "type": "",
    "latitude": 36.3691846,
    "longitude": 3.9006194
  },
  {
    "id": 1125,
    "name": "Boumerdès",
    "country_id": 4,
    "country_code": "DZ",
    "country_name": "Algeria",
    "state_code": 35,
    "type": "",
    "latitude": 36.6839559,
    "longitude": 3.6217802
  },
  {
    "id": 1105,
    "name": "Chlef",
    "country_id": 4,
    "country_code": "DZ",
    "country_name": "Algeria",
    "state_code": "02",
    "type": "",
    "latitude": 36.1693515,
    "longitude": 1.2891036
  },
  {
    "id": 1121,
    "name": "Constantine",
    "country_id": 4,
    "country_code": "DZ",
    "country_name": "Algeria",
    "state_code": 25,
    "type": "",
    "latitude": 36.3373911,
    "longitude": 6.663812
  },
  {
    "id": 4912,
    "name": "Djanet",
    "country_id": 4,
    "country_code": "DZ",
    "country_name": "Algeria",
    "state_code": 56,
    "type": "",
    "latitude": 23.8310872,
    "longitude": 8.7004672
  },
  {
    "id": 1098,
    "name": "Djelfa",
    "country_id": 4,
    "country_code": "DZ",
    "country_name": "Algeria",
    "state_code": 17,
    "type": "",
    "latitude": 34.6703956,
    "longitude": 3.2503761
  },
  {
    "id": 1129,
    "name": "El Bayadh",
    "country_id": 4,
    "country_code": "DZ",
    "country_name": "Algeria",
    "state_code": 32,
    "type": "",
    "latitude": 32.7148824,
    "longitude": 0.9056623
  },
  {
    "id": 4905,
    "name": "El M'ghair",
    "country_id": 4,
    "country_code": "DZ",
    "country_name": "Algeria",
    "state_code": 49,
    "type": "",
    "latitude": 33.9540561,
    "longitude": 5.1346418
  },
  {
    "id": 4906,
    "name": "El Menia",
    "country_id": 4,
    "country_code": "DZ",
    "country_name": "Algeria",
    "state_code": 50,
    "type": "",
    "latitude": 31.364225,
    "longitude": 2.5784495
  },
  {
    "id": 1099,
    "name": "El Oued",
    "country_id": 4,
    "country_code": "DZ",
    "country_name": "Algeria",
    "state_code": 39,
    "type": "",
    "latitude": 33.367811,
    "longitude": 6.8516511
  },
  {
    "id": 1100,
    "name": "El Tarf",
    "country_id": 4,
    "country_code": "DZ",
    "country_name": "Algeria",
    "state_code": 36,
    "type": "",
    "latitude": 36.7576678,
    "longitude": 8.3076343
  },
  {
    "id": 1127,
    "name": "Ghardaïa",
    "country_id": 4,
    "country_code": "DZ",
    "country_name": "Algeria",
    "state_code": 47,
    "type": "",
    "latitude": 32.4943741,
    "longitude": 3.64446
  },
  {
    "id": 1137,
    "name": "Guelma",
    "country_id": 4,
    "country_code": "DZ",
    "country_name": "Algeria",
    "state_code": 24,
    "type": "",
    "latitude": 36.4627444,
    "longitude": 7.4330833
  },
  {
    "id": 1112,
    "name": "Illizi",
    "country_id": 4,
    "country_code": "DZ",
    "country_name": "Algeria",
    "state_code": 33,
    "type": "",
    "latitude": 26.1690005,
    "longitude": 8.4842465
  },
  {
    "id": 4914,
    "name": "In Guezzam",
    "country_id": 4,
    "country_code": "DZ",
    "country_name": "Algeria",
    "state_code": 58,
    "type": "",
    "latitude": 20.3864323,
    "longitude": 4.7789394
  },
  {
    "id": 4913,
    "name": "In Salah",
    "country_id": 4,
    "country_code": "DZ",
    "country_name": "Algeria",
    "state_code": 57,
    "type": "",
    "latitude": 27.2149229,
    "longitude": 1.8484396
  },
  {
    "id": 1113,
    "name": "Jijel",
    "country_id": 4,
    "country_code": "DZ",
    "country_name": "Algeria",
    "state_code": 18,
    "type": "",
    "latitude": 36.7179681,
    "longitude": 5.9832577
  },
  {
    "id": 1126,
    "name": "Khenchela",
    "country_id": 4,
    "country_code": "DZ",
    "country_name": "Algeria",
    "state_code": 40,
    "type": "",
    "latitude": 35.4269404,
    "longitude": 7.1460155
  },
  {
    "id": 1138,
    "name": "Laghouat",
    "country_id": 4,
    "country_code": "DZ",
    "country_name": "Algeria",
    "state_code": "03",
    "type": "",
    "latitude": 33.8078341,
    "longitude": 2.8628294
  },
  {
    "id": 1134,
    "name": "M'Sila",
    "country_id": 4,
    "country_code": "DZ",
    "country_name": "Algeria",
    "state_code": 28,
    "type": "",
    "latitude": 35.7186646,
    "longitude": 4.5233423
  },
  {
    "id": 1124,
    "name": "Mascara",
    "country_id": 4,
    "country_code": "DZ",
    "country_name": "Algeria",
    "state_code": 29,
    "type": "",
    "latitude": 35.3904125,
    "longitude": 0.1494988
  },
  {
    "id": 1109,
    "name": "Médéa",
    "country_id": 4,
    "country_code": "DZ",
    "country_name": "Algeria",
    "state_code": 26,
    "type": "",
    "latitude": 36.2637078,
    "longitude": 2.7587857
  },
  {
    "id": 1132,
    "name": "Mila",
    "country_id": 4,
    "country_code": "DZ",
    "country_name": "Algeria",
    "state_code": 43,
    "type": "",
    "latitude": 36.3647957,
    "longitude": 6.1526985
  },
  {
    "id": 1140,
    "name": "Mostaganem",
    "country_id": 4,
    "country_code": "DZ",
    "country_name": "Algeria",
    "state_code": 27,
    "type": "",
    "latitude": 35.9583054,
    "longitude": 0.3371889
  },
  {
    "id": 1102,
    "name": "Naama",
    "country_id": 4,
    "country_code": "DZ",
    "country_name": "Algeria",
    "state_code": 45,
    "type": "",
    "latitude": 33.2667317,
    "longitude": -0.3128659
  },
  {
    "id": 1101,
    "name": "Oran",
    "country_id": 4,
    "country_code": "DZ",
    "country_name": "Algeria",
    "state_code": 31,
    "type": "",
    "latitude": 35.6082351,
    "longitude": -0.563609
  },
  {
    "id": 1139,
    "name": "Ouargla",
    "country_id": 4,
    "country_code": "DZ",
    "country_name": "Algeria",
    "state_code": 30,
    "type": "",
    "latitude": 32.2264863,
    "longitude": 5.7299821
  },
  {
    "id": 4907,
    "name": "Ouled Djellal",
    "country_id": 4,
    "country_code": "DZ",
    "country_name": "Algeria",
    "state_code": 51,
    "type": "",
    "latitude": 34.4178221,
    "longitude": 4.9685843
  },
  {
    "id": 1136,
    "name": "Oum El Bouaghi",
    "country_id": 4,
    "country_code": "DZ",
    "country_name": "Algeria",
    "state_code": "04",
    "type": "",
    "latitude": 35.8688789,
    "longitude": 7.1108266
  },
  {
    "id": 1130,
    "name": "Relizane",
    "country_id": 4,
    "country_code": "DZ",
    "country_name": "Algeria",
    "state_code": 48,
    "type": "",
    "latitude": 35.7383405,
    "longitude": 0.7532809
  },
  {
    "id": 1123,
    "name": "Saïda",
    "country_id": 4,
    "country_code": "DZ",
    "country_name": "Algeria",
    "state_code": 20,
    "type": "",
    "latitude": 34.8415207,
    "longitude": 0.1456055
  },
  {
    "id": 1141,
    "name": "Sétif",
    "country_id": 4,
    "country_code": "DZ",
    "country_name": "Algeria",
    "state_code": 19,
    "type": "",
    "latitude": 36.3073389,
    "longitude": 5.5617279
  },
  {
    "id": 4902,
    "name": "Sidi Bel Abbès",
    "country_id": 4,
    "country_code": "DZ",
    "country_name": "Algeria",
    "state_code": 22,
    "type": "",
    "latitude": 34.6806024,
    "longitude": -1.0999495
  },
  {
    "id": 1110,
    "name": "Skikda",
    "country_id": 4,
    "country_code": "DZ",
    "country_name": "Algeria",
    "state_code": 21,
    "type": "",
    "latitude": 36.6721198,
    "longitude": 6.8350999
  },
  {
    "id": 1143,
    "name": "Souk Ahras",
    "country_id": 4,
    "country_code": "DZ",
    "country_name": "Algeria",
    "state_code": 41,
    "type": "",
    "latitude": 36.2801062,
    "longitude": 7.9384033
  },
  {
    "id": 1135,
    "name": "Tamanghasset",
    "country_id": 4,
    "country_code": "DZ",
    "country_name": "Algeria",
    "state_code": 11,
    "type": "",
    "latitude": 22.7902972,
    "longitude": 5.5193268
  },
  {
    "id": 1117,
    "name": "Tébessa",
    "country_id": 4,
    "country_code": "DZ",
    "country_name": "Algeria",
    "state_code": 12,
    "type": "",
    "latitude": 35.1290691,
    "longitude": 7.9592863
  },
  {
    "id": 1106,
    "name": "Tiaret",
    "country_id": 4,
    "country_code": "DZ",
    "country_name": "Algeria",
    "state_code": 14,
    "type": "",
    "latitude": 35.3708689,
    "longitude": 1.3217852
  },
  {
    "id": 4910,
    "name": "Timimoun",
    "country_id": 4,
    "country_code": "DZ",
    "country_name": "Algeria",
    "state_code": 54,
    "type": "",
    "latitude": 29.678906,
    "longitude": 0.5004608
  },
  {
    "id": 1120,
    "name": "Tindouf",
    "country_id": 4,
    "country_code": "DZ",
    "country_name": "Algeria",
    "state_code": 37,
    "type": "",
    "latitude": 27.8063119,
    "longitude": -5.7299821
  },
  {
    "id": 1115,
    "name": "Tipasa",
    "country_id": 4,
    "country_code": "DZ",
    "country_name": "Algeria",
    "state_code": 42,
    "type": "",
    "latitude": 36.546265,
    "longitude": 2.1843285
  },
  {
    "id": 1133,
    "name": "Tissemsilt",
    "country_id": 4,
    "country_code": "DZ",
    "country_name": "Algeria",
    "state_code": 38,
    "type": "",
    "latitude": 35.6053781,
    "longitude": 1.813098
  },
  {
    "id": 1131,
    "name": "Tizi Ouzou",
    "country_id": 4,
    "country_code": "DZ",
    "country_name": "Algeria",
    "state_code": 15,
    "type": "",
    "latitude": 36.706911,
    "longitude": 4.2333355
  },
  {
    "id": 1107,
    "name": "Tlemcen",
    "country_id": 4,
    "country_code": "DZ",
    "country_name": "Algeria",
    "state_code": 13,
    "type": "",
    "latitude": 34.6780284,
    "longitude": -1.366216
  },
  {
    "id": 4911,
    "name": "Touggourt",
    "country_id": 4,
    "country_code": "DZ",
    "country_name": "Algeria",
    "state_code": 55,
    "type": "",
    "latitude": 33.1248476,
    "longitude": 5.7832715
  },
  {
    "id": 488,
    "name": "Andorra la Vella",
    "country_id": 6,
    "country_code": "AD",
    "country_name": "Andorra",
    "state_code": "07",
    "type": "",
    "latitude": 42.5063174,
    "longitude": 1.5218355
  },
  {
    "id": 489,
    "name": "Canillo",
    "country_id": 6,
    "country_code": "AD",
    "country_name": "Andorra",
    "state_code": "02",
    "type": "",
    "latitude": 42.5978249,
    "longitude": 1.6566377
  },
  {
    "id": 487,
    "name": "Encamp",
    "country_id": 6,
    "country_code": "AD",
    "country_name": "Andorra",
    "state_code": "03",
    "type": "",
    "latitude": 42.5359764,
    "longitude": 1.5836773
  },
  {
    "id": 492,
    "name": "Escaldes-Engordany",
    "country_id": 6,
    "country_code": "AD",
    "country_name": "Andorra",
    "state_code": "08",
    "type": "",
    "latitude": 42.4909379,
    "longitude": 1.5886966
  },
  {
    "id": 493,
    "name": "La Massana",
    "country_id": 6,
    "country_code": "AD",
    "country_name": "Andorra",
    "state_code": "04",
    "type": "",
    "latitude": 42.545625,
    "longitude": 1.5147392
  },
  {
    "id": 491,
    "name": "Ordino",
    "country_id": 6,
    "country_code": "AD",
    "country_name": "Andorra",
    "state_code": "05",
    "type": "",
    "latitude": 42.5994433,
    "longitude": 1.5402327
  },
  {
    "id": 490,
    "name": "Sant Julià de Lòria",
    "country_id": 6,
    "country_code": "AD",
    "country_name": "Andorra",
    "state_code": "06",
    "type": "",
    "latitude": 42.4529631,
    "longitude": 1.4918235
  },
  {
    "id": 221,
    "name": "Bengo Province",
    "country_id": 7,
    "country_code": "AO",
    "country_name": "Angola",
    "state_code": "BGO",
    "type": "",
    "latitude": -9.1042257,
    "longitude": 13.7289167
  },
  {
    "id": 218,
    "name": "Benguela Province",
    "country_id": 7,
    "country_code": "AO",
    "country_name": "Angola",
    "state_code": "BGU",
    "type": "",
    "latitude": -12.8003744,
    "longitude": 13.914399
  },
  {
    "id": 212,
    "name": "Bié Province",
    "country_id": 7,
    "country_code": "AO",
    "country_name": "Angola",
    "state_code": "BIE",
    "type": "",
    "latitude": -12.5727907,
    "longitude": 17.668887
  },
  {
    "id": 228,
    "name": "Cabinda Province",
    "country_id": 7,
    "country_code": "AO",
    "country_name": "Angola",
    "state_code": "CAB",
    "type": "",
    "latitude": -5.0248749,
    "longitude": 12.3463875
  },
  {
    "id": 226,
    "name": "Cuando Cubango Province",
    "country_id": 7,
    "country_code": "AO",
    "country_name": "Angola",
    "state_code": "CCU",
    "type": "",
    "latitude": -16.4180824,
    "longitude": 18.8076195
  },
  {
    "id": 217,
    "name": "Cuanza Norte Province",
    "country_id": 7,
    "country_code": "AO",
    "country_name": "Angola",
    "state_code": "CNO",
    "type": "",
    "latitude": -9.2398513,
    "longitude": 14.6587821
  },
  {
    "id": 216,
    "name": "Cuanza Sul",
    "country_id": 7,
    "country_code": "AO",
    "country_name": "Angola",
    "state_code": "CUS",
    "type": "",
    "latitude": -10.595191,
    "longitude": 15.4068079
  },
  {
    "id": 215,
    "name": "Cunene Province",
    "country_id": 7,
    "country_code": "AO",
    "country_name": "Angola",
    "state_code": "CNN",
    "type": "",
    "latitude": -16.2802221,
    "longitude": 16.1580937
  },
  {
    "id": 213,
    "name": "Huambo Province",
    "country_id": 7,
    "country_code": "AO",
    "country_name": "Angola",
    "state_code": "HUA",
    "type": "",
    "latitude": -12.5268221,
    "longitude": 15.5943388
  },
  {
    "id": 225,
    "name": "Huíla Province",
    "country_id": 7,
    "country_code": "AO",
    "country_name": "Angola",
    "state_code": "HUI",
    "type": "",
    "latitude": -14.9280553,
    "longitude": 14.6587821
  },
  {
    "id": 222,
    "name": "Luanda Province",
    "country_id": 7,
    "country_code": "AO",
    "country_name": "Angola",
    "state_code": "LUA",
    "type": "",
    "latitude": -9.035088,
    "longitude": 13.2663479
  },
  {
    "id": 223,
    "name": "Lunda Norte Province",
    "country_id": 7,
    "country_code": "AO",
    "country_name": "Angola",
    "state_code": "LNO",
    "type": "",
    "latitude": -8.3525022,
    "longitude": 19.1880047
  },
  {
    "id": 220,
    "name": "Lunda Sul Province",
    "country_id": 7,
    "country_code": "AO",
    "country_name": "Angola",
    "state_code": "LSU",
    "type": "",
    "latitude": -10.2866578,
    "longitude": 20.7122465
  },
  {
    "id": 227,
    "name": "Malanje Province",
    "country_id": 7,
    "country_code": "AO",
    "country_name": "Angola",
    "state_code": "MAL",
    "type": "",
    "latitude": -9.8251183,
    "longitude": 16.912251
  },
  {
    "id": 219,
    "name": "Moxico Province",
    "country_id": 7,
    "country_code": "AO",
    "country_name": "Angola",
    "state_code": "MOX",
    "type": "",
    "latitude": -13.4293579,
    "longitude": 20.3308814
  },
  {
    "id": 224,
    "name": "Uíge Province",
    "country_id": 7,
    "country_code": "AO",
    "country_name": "Angola",
    "state_code": "UIG",
    "type": "",
    "latitude": -7.1736732,
    "longitude": 15.4068079
  },
  {
    "id": 214,
    "name": "Zaire Province",
    "country_id": 7,
    "country_code": "AO",
    "country_name": "Angola",
    "state_code": "ZAI",
    "type": "",
    "latitude": -6.5733458,
    "longitude": 13.1740348
  },
  {
    "id": 3708,
    "name": "Barbuda",
    "country_id": 10,
    "country_code": "AG",
    "country_name": "Antigua And Barbuda",
    "state_code": 10,
    "type": "",
    "latitude": 17.6266242,
    "longitude": -61.7713028
  },
  {
    "id": 3703,
    "name": "Redonda",
    "country_id": 10,
    "country_code": "AG",
    "country_name": "Antigua And Barbuda",
    "state_code": 11,
    "type": "",
    "latitude": 16.938416,
    "longitude": -62.3455148
  },
  {
    "id": 3709,
    "name": "Saint George Parish",
    "country_id": 10,
    "country_code": "AG",
    "country_name": "Antigua And Barbuda",
    "state_code": "03",
    "type": "",
    "latitude": "",
    "longitude": ""
  },
  {
    "id": 3706,
    "name": "Saint John Parish",
    "country_id": 10,
    "country_code": "AG",
    "country_name": "Antigua And Barbuda",
    "state_code": "04",
    "type": "",
    "latitude": "",
    "longitude": ""
  },
  {
    "id": 3707,
    "name": "Saint Mary Parish",
    "country_id": 10,
    "country_code": "AG",
    "country_name": "Antigua And Barbuda",
    "state_code": "05",
    "type": "",
    "latitude": "",
    "longitude": ""
  },
  {
    "id": 3705,
    "name": "Saint Paul Parish",
    "country_id": 10,
    "country_code": "AG",
    "country_name": "Antigua And Barbuda",
    "state_code": "06",
    "type": "",
    "latitude": "",
    "longitude": ""
  },
  {
    "id": 3704,
    "name": "Saint Peter Parish",
    "country_id": 10,
    "country_code": "AG",
    "country_name": "Antigua And Barbuda",
    "state_code": "07",
    "type": "",
    "latitude": "",
    "longitude": ""
  },
  {
    "id": 3710,
    "name": "Saint Philip Parish",
    "country_id": 10,
    "country_code": "AG",
    "country_name": "Antigua And Barbuda",
    "state_code": "08",
    "type": "",
    "latitude": 40.4368258,
    "longitude": -80.0685532
  },
  {
    "id": 3656,
    "name": "Buenos Aires",
    "country_id": 11,
    "country_code": "AR",
    "country_name": "Argentina",
    "state_code": "B",
    "type": "province",
    "latitude": -37.2017285,
    "longitude": -59.8410697
  },
  {
    "id": 3647,
    "name": "Catamarca",
    "country_id": 11,
    "country_code": "AR",
    "country_name": "Argentina",
    "state_code": "K",
    "type": "province",
    "latitude": -28.4715877,
    "longitude": -65.7877209
  },
  {
    "id": 3640,
    "name": "Chaco",
    "country_id": 11,
    "country_code": "AR",
    "country_name": "Argentina",
    "state_code": "H",
    "type": "province",
    "latitude": -27.4257175,
    "longitude": -59.0243784
  },
  {
    "id": 3651,
    "name": "Chubut",
    "country_id": 11,
    "country_code": "AR",
    "country_name": "Argentina",
    "state_code": "U",
    "type": "province",
    "latitude": -43.2934246,
    "longitude": -65.1114818
  },
  {
    "id": 4880,
    "name": "Ciudad Autónoma de Buenos Aires",
    "country_id": 11,
    "country_code": "AR",
    "country_name": "Argentina",
    "state_code": "C",
    "type": "city",
    "latitude": -34.6036844,
    "longitude": -58.3815591
  },
  {
    "id": 3642,
    "name": "Córdoba",
    "country_id": 11,
    "country_code": "AR",
    "country_name": "Argentina",
    "state_code": "X",
    "type": "province",
    "latitude": -31.3992876,
    "longitude": -64.2643842
  },
  {
    "id": 3638,
    "name": "Corrientes",
    "country_id": 11,
    "country_code": "AR",
    "country_name": "Argentina",
    "state_code": "W",
    "type": "province",
    "latitude": -27.4692131,
    "longitude": -58.8306349
  },
  {
    "id": 3654,
    "name": "Entre Ríos",
    "country_id": 11,
    "country_code": "AR",
    "country_name": "Argentina",
    "state_code": "E",
    "type": "province",
    "latitude": -31.7746654,
    "longitude": -60.4956461
  },
  {
    "id": 3652,
    "name": "Formosa",
    "country_id": 11,
    "country_code": "AR",
    "country_name": "Argentina",
    "state_code": "P",
    "type": "province",
    "latitude": -26.1894804,
    "longitude": -58.2242806
  },
  {
    "id": 3645,
    "name": "Jujuy",
    "country_id": 11,
    "country_code": "AR",
    "country_name": "Argentina",
    "state_code": "Y",
    "type": "province",
    "latitude": -24.1843397,
    "longitude": -65.302177
  },
  {
    "id": 3655,
    "name": "La Pampa",
    "country_id": 11,
    "country_code": "AR",
    "country_name": "Argentina",
    "state_code": "L",
    "type": "province",
    "latitude": -36.6147573,
    "longitude": -64.2839209
  },
  {
    "id": 3653,
    "name": "La Rioja",
    "country_id": 11,
    "country_code": "AR",
    "country_name": "Argentina",
    "state_code": "F",
    "type": "province",
    "latitude": -29.4193793,
    "longitude": -66.8559932
  },
  {
    "id": 3646,
    "name": "Mendoza",
    "country_id": 11,
    "country_code": "AR",
    "country_name": "Argentina",
    "state_code": "M",
    "type": "province",
    "latitude": -32.8894587,
    "longitude": -68.8458386
  },
  {
    "id": 3644,
    "name": "Misiones",
    "country_id": 11,
    "country_code": "AR",
    "country_name": "Argentina",
    "state_code": "N",
    "type": "province",
    "latitude": -27.4269255,
    "longitude": -55.9467076
  },
  {
    "id": 3648,
    "name": "Neuquén",
    "country_id": 11,
    "country_code": "AR",
    "country_name": "Argentina",
    "state_code": "Q",
    "type": "province",
    "latitude": -38.94587,
    "longitude": -68.0730925
  },
  {
    "id": 3639,
    "name": "Río Negro",
    "country_id": 11,
    "country_code": "AR",
    "country_name": "Argentina",
    "state_code": "R",
    "type": "province",
    "latitude": -40.8261434,
    "longitude": -63.0266339
  },
  {
    "id": 3643,
    "name": "Salta",
    "country_id": 11,
    "country_code": "AR",
    "country_name": "Argentina",
    "state_code": "A",
    "type": "province",
    "latitude": -24.7997688,
    "longitude": -65.4150367
  },
  {
    "id": 3634,
    "name": "San Juan",
    "country_id": 11,
    "country_code": "AR",
    "country_name": "Argentina",
    "state_code": "J",
    "type": "province",
    "latitude": -31.5316976,
    "longitude": -68.5676962
  },
  {
    "id": 3636,
    "name": "San Luis",
    "country_id": 11,
    "country_code": "AR",
    "country_name": "Argentina",
    "state_code": "D",
    "type": "province",
    "latitude": -33.2962042,
    "longitude": -66.3294948
  },
  {
    "id": 3649,
    "name": "Santa Cruz",
    "country_id": 11,
    "country_code": "AR",
    "country_name": "Argentina",
    "state_code": "Z",
    "type": "province",
    "latitude": -51.6352821,
    "longitude": -69.2474353
  },
  {
    "id": 3641,
    "name": "Santa Fe",
    "country_id": 11,
    "country_code": "AR",
    "country_name": "Argentina",
    "state_code": "S",
    "type": "province",
    "latitude": -31.5855109,
    "longitude": -60.7238016
  },
  {
    "id": 3635,
    "name": "Santiago del Estero",
    "country_id": 11,
    "country_code": "AR",
    "country_name": "Argentina",
    "state_code": "G",
    "type": "province",
    "latitude": -27.7833574,
    "longitude": -64.264167
  },
  {
    "id": 3650,
    "name": "Tierra del Fuego",
    "country_id": 11,
    "country_code": "AR",
    "country_name": "Argentina",
    "state_code": "V",
    "type": "province",
    "latitude": -54.8053998,
    "longitude": -68.3242061
  },
  {
    "id": 3637,
    "name": "Tucumán",
    "country_id": 11,
    "country_code": "AR",
    "country_name": "Argentina",
    "state_code": "T",
    "type": "province",
    "latitude": -26.8221127,
    "longitude": -65.2192903
  },
  {
    "id": 2023,
    "name": "Aragatsotn Region",
    "country_id": 12,
    "country_code": "AM",
    "country_name": "Armenia",
    "state_code": "AG",
    "type": "",
    "latitude": 40.3347301,
    "longitude": 44.3748296
  },
  {
    "id": 2024,
    "name": "Ararat Province",
    "country_id": 12,
    "country_code": "AM",
    "country_name": "Armenia",
    "state_code": "AR",
    "type": "",
    "latitude": 39.9139415,
    "longitude": 44.7200004
  },
  {
    "id": 2026,
    "name": "Armavir Region",
    "country_id": 12,
    "country_code": "AM",
    "country_name": "Armenia",
    "state_code": "AV",
    "type": "",
    "latitude": 40.1554631,
    "longitude": 44.0372446
  },
  {
    "id": 2028,
    "name": "Gegharkunik Province",
    "country_id": 12,
    "country_code": "AM",
    "country_name": "Armenia",
    "state_code": "GR",
    "type": "",
    "latitude": 40.3526426,
    "longitude": 45.1260414
  },
  {
    "id": 2033,
    "name": "Kotayk Region",
    "country_id": 12,
    "country_code": "AM",
    "country_name": "Armenia",
    "state_code": "KT",
    "type": "",
    "latitude": 40.5410214,
    "longitude": 44.7690148
  },
  {
    "id": 2029,
    "name": "Lori Region",
    "country_id": 12,
    "country_code": "AM",
    "country_name": "Armenia",
    "state_code": "LO",
    "type": "",
    "latitude": 40.9698452,
    "longitude": 44.4900138
  },
  {
    "id": 2031,
    "name": "Shirak Region",
    "country_id": 12,
    "country_code": "AM",
    "country_name": "Armenia",
    "state_code": "SH",
    "type": "",
    "latitude": 40.9630814,
    "longitude": 43.8102461
  },
  {
    "id": 2027,
    "name": "Syunik Province",
    "country_id": 12,
    "country_code": "AM",
    "country_name": "Armenia",
    "state_code": "SU",
    "type": "",
    "latitude": 39.5133112,
    "longitude": 46.3393234
  },
  {
    "id": 2032,
    "name": "Tavush Region",
    "country_id": 12,
    "country_code": "AM",
    "country_name": "Armenia",
    "state_code": "TV",
    "type": "",
    "latitude": 40.8866296,
    "longitude": 45.339349
  },
  {
    "id": 2025,
    "name": "Vayots Dzor Region",
    "country_id": 12,
    "country_code": "AM",
    "country_name": "Armenia",
    "state_code": "VD",
    "type": "",
    "latitude": 39.7641996,
    "longitude": 45.3337528
  },
  {
    "id": 2030,
    "name": "Yerevan",
    "country_id": 12,
    "country_code": "AM",
    "country_name": "Armenia",
    "state_code": "ER",
    "type": "",
    "latitude": 40.1872023,
    "longitude": 44.515209
  },
  {
    "id": 3907,
    "name": "Australian Capital Territory",
    "country_id": 14,
    "country_code": "AU",
    "country_name": "Australia",
    "state_code": "ACT",
    "type": "territory",
    "latitude": -35.4734679,
    "longitude": 149.0123679
  },
  {
    "id": 3909,
    "name": "New South Wales",
    "country_id": 14,
    "country_code": "AU",
    "country_name": "Australia",
    "state_code": "NSW",
    "type": "state",
    "latitude": -31.2532183,
    "longitude": 146.921099
  },
  {
    "id": 3910,
    "name": "Northern Territory",
    "country_id": 14,
    "country_code": "AU",
    "country_name": "Australia",
    "state_code": "NT",
    "type": "territory",
    "latitude": -19.4914108,
    "longitude": 132.5509603
  },
  {
    "id": 3905,
    "name": "Queensland",
    "country_id": 14,
    "country_code": "AU",
    "country_name": "Australia",
    "state_code": "QLD",
    "type": "state",
    "latitude": -20.9175738,
    "longitude": 142.7027956
  },
  {
    "id": 3904,
    "name": "South Australia",
    "country_id": 14,
    "country_code": "AU",
    "country_name": "Australia",
    "state_code": "SA",
    "type": "state",
    "latitude": -30.0002315,
    "longitude": 136.2091547
  },
  {
    "id": 3908,
    "name": "Tasmania",
    "country_id": 14,
    "country_code": "AU",
    "country_name": "Australia",
    "state_code": "TAS",
    "type": "state",
    "latitude": -41.4545196,
    "longitude": 145.9706647
  },
  {
    "id": 3903,
    "name": "Victoria",
    "country_id": 14,
    "country_code": "AU",
    "country_name": "Australia",
    "state_code": "VIC",
    "type": "state",
    "latitude": -36.4856423,
    "longitude": 140.9779425
  },
  {
    "id": 3906,
    "name": "Western Australia",
    "country_id": 14,
    "country_code": "AU",
    "country_name": "Australia",
    "state_code": "WA",
    "type": "state",
    "latitude": -27.6728168,
    "longitude": 121.6283098
  },
  {
    "id": 2062,
    "name": "Burgenland",
    "country_id": 15,
    "country_code": "AT",
    "country_name": "Austria",
    "state_code": 1,
    "type": "",
    "latitude": 47.1537165,
    "longitude": 16.2688797
  },
  {
    "id": 2057,
    "name": "Carinthia",
    "country_id": 15,
    "country_code": "AT",
    "country_name": "Austria",
    "state_code": 2,
    "type": "",
    "latitude": 46.722203,
    "longitude": 14.1805882
  },
  {
    "id": 2065,
    "name": "Lower Austria",
    "country_id": 15,
    "country_code": "AT",
    "country_name": "Austria",
    "state_code": 3,
    "type": "",
    "latitude": 48.108077,
    "longitude": 15.8049558
  },
  {
    "id": 2061,
    "name": "Salzburg",
    "country_id": 15,
    "country_code": "AT",
    "country_name": "Austria",
    "state_code": 5,
    "type": "",
    "latitude": 47.80949,
    "longitude": 13.05501
  },
  {
    "id": 2059,
    "name": "Styria",
    "country_id": 15,
    "country_code": "AT",
    "country_name": "Austria",
    "state_code": 6,
    "type": "",
    "latitude": 47.3593442,
    "longitude": 14.4699827
  },
  {
    "id": 2064,
    "name": "Tyrol",
    "country_id": 15,
    "country_code": "AT",
    "country_name": "Austria",
    "state_code": 7,
    "type": "",
    "latitude": 47.2537414,
    "longitude": 11.601487
  },
  {
    "id": 2058,
    "name": "Upper Austria",
    "country_id": 15,
    "country_code": "AT",
    "country_name": "Austria",
    "state_code": 4,
    "type": "",
    "latitude": 48.025854,
    "longitude": 13.9723665
  },
  {
    "id": 2060,
    "name": "Vienna",
    "country_id": 15,
    "country_code": "AT",
    "country_name": "Austria",
    "state_code": 9,
    "type": "",
    "latitude": 48.2081743,
    "longitude": 16.3738189
  },
  {
    "id": 2063,
    "name": "Vorarlberg",
    "country_id": 15,
    "country_code": "AT",
    "country_name": "Austria",
    "state_code": 8,
    "type": "",
    "latitude": 47.2497427,
    "longitude": 9.9797373
  },
  {
    "id": 540,
    "name": "Absheron District",
    "country_id": 16,
    "country_code": "AZ",
    "country_name": "Azerbaijan",
    "state_code": "ABS",
    "type": "",
    "latitude": 40.3629693,
    "longitude": 49.2736815
  },
  {
    "id": 559,
    "name": "Agdam District",
    "country_id": 16,
    "country_code": "AZ",
    "country_name": "Azerbaijan",
    "state_code": "AGM",
    "type": "",
    "latitude": 39.9931853,
    "longitude": 46.9949562
  },
  {
    "id": 553,
    "name": "Agdash District",
    "country_id": 16,
    "country_code": "AZ",
    "country_name": "Azerbaijan",
    "state_code": "AGS",
    "type": "",
    "latitude": 40.6335427,
    "longitude": 47.467431
  },
  {
    "id": 577,
    "name": "Aghjabadi District",
    "country_id": 16,
    "country_code": "AZ",
    "country_name": "Azerbaijan",
    "state_code": "AGC",
    "type": "",
    "latitude": 28.7891841,
    "longitude": 77.5160788
  },
  {
    "id": 543,
    "name": "Agstafa District",
    "country_id": 16,
    "country_code": "AZ",
    "country_name": "Azerbaijan",
    "state_code": "AGA",
    "type": "",
    "latitude": 41.2655933,
    "longitude": 45.5134291
  },
  {
    "id": 547,
    "name": "Agsu District",
    "country_id": 16,
    "country_code": "AZ",
    "country_name": "Azerbaijan",
    "state_code": "AGU",
    "type": "",
    "latitude": 40.5283339,
    "longitude": 48.3650835
  },
  {
    "id": 528,
    "name": "Astara District",
    "country_id": 16,
    "country_code": "AZ",
    "country_name": "Azerbaijan",
    "state_code": "AST",
    "type": "",
    "latitude": 38.4937845,
    "longitude": 48.6944365
  },
  {
    "id": 575,
    "name": "Babek District",
    "country_id": 16,
    "country_code": "AZ",
    "country_name": "Azerbaijan",
    "state_code": "BAB",
    "type": "",
    "latitude": 39.1507613,
    "longitude": 45.4485368
  },
  {
    "id": 552,
    "name": "Baku",
    "country_id": 16,
    "country_code": "AZ",
    "country_name": "Azerbaijan",
    "state_code": "BA",
    "type": "",
    "latitude": 40.4092617,
    "longitude": 49.8670924
  },
  {
    "id": 560,
    "name": "Balakan District",
    "country_id": 16,
    "country_code": "AZ",
    "country_name": "Azerbaijan",
    "state_code": "BAL",
    "type": "",
    "latitude": 41.7037509,
    "longitude": 46.4044213
  },
  {
    "id": 569,
    "name": "Barda District",
    "country_id": 16,
    "country_code": "AZ",
    "country_name": "Azerbaijan",
    "state_code": "BAR",
    "type": "",
    "latitude": 40.3706555,
    "longitude": 47.1378909
  },
  {
    "id": 554,
    "name": "Beylagan District",
    "country_id": 16,
    "country_code": "AZ",
    "country_name": "Azerbaijan",
    "state_code": "BEY",
    "type": "",
    "latitude": 39.7723073,
    "longitude": 47.6154166
  },
  {
    "id": 532,
    "name": "Bilasuvar District",
    "country_id": 16,
    "country_code": "AZ",
    "country_name": "Azerbaijan",
    "state_code": "BIL",
    "type": "",
    "latitude": 39.4598833,
    "longitude": 48.5509813
  },
  {
    "id": 561,
    "name": "Dashkasan District",
    "country_id": 16,
    "country_code": "AZ",
    "country_name": "Azerbaijan",
    "state_code": "DAS",
    "type": "",
    "latitude": 40.5202257,
    "longitude": 46.0779304
  },
  {
    "id": 527,
    "name": "Fizuli District",
    "country_id": 16,
    "country_code": "AZ",
    "country_name": "Azerbaijan",
    "state_code": "FUZ",
    "type": "",
    "latitude": 39.5378605,
    "longitude": 47.3033877
  },
  {
    "id": 585,
    "name": "Ganja",
    "country_id": 16,
    "country_code": "AZ",
    "country_name": "Azerbaijan",
    "state_code": "GA",
    "type": "",
    "latitude": 36.3687338,
    "longitude": -95.9985767
  },
  {
    "id": 589,
    "name": "Gədəbəy",
    "country_id": 16,
    "country_code": "AZ",
    "country_name": "Azerbaijan",
    "state_code": "GAD",
    "type": "",
    "latitude": 40.5699639,
    "longitude": 45.8106883
  },
  {
    "id": 573,
    "name": "Gobustan District",
    "country_id": 16,
    "country_code": "AZ",
    "country_name": "Azerbaijan",
    "state_code": "QOB",
    "type": "",
    "latitude": 40.5326104,
    "longitude": 48.927375
  },
  {
    "id": 551,
    "name": "Goranboy District",
    "country_id": 16,
    "country_code": "AZ",
    "country_name": "Azerbaijan",
    "state_code": "GOR",
    "type": "",
    "latitude": 40.5380506,
    "longitude": 46.5990891
  },
  {
    "id": 531,
    "name": "Goychay",
    "country_id": 16,
    "country_code": "AZ",
    "country_name": "Azerbaijan",
    "state_code": "GOY",
    "type": "",
    "latitude": 40.6236168,
    "longitude": 47.7403034
  },
  {
    "id": 574,
    "name": "Goygol District",
    "country_id": 16,
    "country_code": "AZ",
    "country_name": "Azerbaijan",
    "state_code": "GYG",
    "type": "",
    "latitude": 40.5595378,
    "longitude": 46.3314953
  },
  {
    "id": 571,
    "name": "Hajigabul District",
    "country_id": 16,
    "country_code": "AZ",
    "country_name": "Azerbaijan",
    "state_code": "HAC",
    "type": "",
    "latitude": 40.039377,
    "longitude": 48.9202533
  },
  {
    "id": 544,
    "name": "Imishli District",
    "country_id": 16,
    "country_code": "AZ",
    "country_name": "Azerbaijan",
    "state_code": "IMI",
    "type": "",
    "latitude": 39.8694686,
    "longitude": 48.0665218
  },
  {
    "id": 564,
    "name": "Ismailli District",
    "country_id": 16,
    "country_code": "AZ",
    "country_name": "Azerbaijan",
    "state_code": "ISM",
    "type": "",
    "latitude": 40.7429936,
    "longitude": 48.2125556
  },
  {
    "id": 570,
    "name": "Jabrayil District",
    "country_id": 16,
    "country_code": "AZ",
    "country_name": "Azerbaijan",
    "state_code": "CAB",
    "type": "",
    "latitude": 39.2645544,
    "longitude": 46.9621562
  },
  {
    "id": 578,
    "name": "Jalilabad District",
    "country_id": 16,
    "country_code": "AZ",
    "country_name": "Azerbaijan",
    "state_code": "CAL",
    "type": "",
    "latitude": 39.2051632,
    "longitude": 48.5100604
  },
  {
    "id": 572,
    "name": "Julfa District",
    "country_id": 16,
    "country_code": "AZ",
    "country_name": "Azerbaijan",
    "state_code": "CUL",
    "type": "",
    "latitude": 38.9604983,
    "longitude": 45.6292939
  },
  {
    "id": 525,
    "name": "Kalbajar District",
    "country_id": 16,
    "country_code": "AZ",
    "country_name": "Azerbaijan",
    "state_code": "KAL",
    "type": "",
    "latitude": 40.1024329,
    "longitude": 46.0364872
  },
  {
    "id": 567,
    "name": "Kangarli District",
    "country_id": 16,
    "country_code": "AZ",
    "country_name": "Azerbaijan",
    "state_code": "KAN",
    "type": "",
    "latitude": 39.387194,
    "longitude": 45.1639852
  },
  {
    "id": 590,
    "name": "Khachmaz District",
    "country_id": 16,
    "country_code": "AZ",
    "country_name": "Azerbaijan",
    "state_code": "XAC",
    "type": "",
    "latitude": 41.4591168,
    "longitude": 48.8020626
  },
  {
    "id": 537,
    "name": "Khizi District",
    "country_id": 16,
    "country_code": "AZ",
    "country_name": "Azerbaijan",
    "state_code": "XIZ",
    "type": "",
    "latitude": 40.9109489,
    "longitude": 49.0729264
  },
  {
    "id": 524,
    "name": "Khojali District",
    "country_id": 16,
    "country_code": "AZ",
    "country_name": "Azerbaijan",
    "state_code": "XCI",
    "type": "",
    "latitude": 39.9132553,
    "longitude": 46.794305
  },
  {
    "id": 549,
    "name": "Kurdamir District",
    "country_id": 16,
    "country_code": "AZ",
    "country_name": "Azerbaijan",
    "state_code": "KUR",
    "type": "",
    "latitude": 40.3698651,
    "longitude": 48.1644626
  },
  {
    "id": 541,
    "name": "Lachin District",
    "country_id": 16,
    "country_code": "AZ",
    "country_name": "Azerbaijan",
    "state_code": "LAC",
    "type": "",
    "latitude": 39.6383414,
    "longitude": 46.5460853
  },
  {
    "id": 587,
    "name": "Lankaran",
    "country_id": 16,
    "country_code": "AZ",
    "country_name": "Azerbaijan",
    "state_code": "LAN",
    "type": "",
    "latitude": 38.7528669,
    "longitude": 48.8475015
  },
  {
    "id": 558,
    "name": "Lankaran District",
    "country_id": 16,
    "country_code": "AZ",
    "country_name": "Azerbaijan",
    "state_code": "LA",
    "type": "",
    "latitude": 38.7528669,
    "longitude": 48.8475015
  },
  {
    "id": 546,
    "name": "Lerik District",
    "country_id": 16,
    "country_code": "AZ",
    "country_name": "Azerbaijan",
    "state_code": "LER",
    "type": "",
    "latitude": 38.7736192,
    "longitude": 48.4151483
  },
  {
    "id": 568,
    "name": "Martuni",
    "country_id": 16,
    "country_code": "AZ",
    "country_name": "Azerbaijan",
    "state_code": "XVD",
    "type": "",
    "latitude": 39.7914693,
    "longitude": 47.1100814
  },
  {
    "id": 555,
    "name": "Masally District",
    "country_id": 16,
    "country_code": "AZ",
    "country_name": "Azerbaijan",
    "state_code": "MAS",
    "type": "",
    "latitude": 39.0340722,
    "longitude": 48.6589354
  },
  {
    "id": 580,
    "name": "Mingachevir",
    "country_id": 16,
    "country_code": "AZ",
    "country_name": "Azerbaijan",
    "state_code": "MI",
    "type": "",
    "latitude": 40.7702563,
    "longitude": 47.0496015
  },
  {
    "id": 562,
    "name": "Nakhchivan Autonomous Republic",
    "country_id": 16,
    "country_code": "AZ",
    "country_name": "Azerbaijan",
    "state_code": "NX",
    "type": "",
    "latitude": 39.3256814,
    "longitude": 45.4912648
  },
  {
    "id": 530,
    "name": "Neftchala District",
    "country_id": 16,
    "country_code": "AZ",
    "country_name": "Azerbaijan",
    "state_code": "NEF",
    "type": "",
    "latitude": 39.3881052,
    "longitude": 49.2413743
  },
  {
    "id": 556,
    "name": "Oghuz District",
    "country_id": 16,
    "country_code": "AZ",
    "country_name": "Azerbaijan",
    "state_code": "OGU",
    "type": "",
    "latitude": 41.0727924,
    "longitude": 47.4650672
  },
  {
    "id": 534,
    "name": "Ordubad District",
    "country_id": 16,
    "country_code": "AZ",
    "country_name": "Azerbaijan",
    "state_code": "ORD",
    "type": "",
    "latitude": 38.9021622,
    "longitude": 46.0237625
  },
  {
    "id": 542,
    "name": "Qabala District",
    "country_id": 16,
    "country_code": "AZ",
    "country_name": "Azerbaijan",
    "state_code": "QAB",
    "type": "",
    "latitude": 40.9253925,
    "longitude": 47.8016106
  },
  {
    "id": 526,
    "name": "Qakh District",
    "country_id": 16,
    "country_code": "AZ",
    "country_name": "Azerbaijan",
    "state_code": "QAX",
    "type": "",
    "latitude": 41.4206827,
    "longitude": 46.9320184
  },
  {
    "id": 521,
    "name": "Qazakh District",
    "country_id": 16,
    "country_code": "AZ",
    "country_name": "Azerbaijan",
    "state_code": "QAZ",
    "type": "",
    "latitude": 41.0971074,
    "longitude": 45.3516331
  },
  {
    "id": 563,
    "name": "Quba District",
    "country_id": 16,
    "country_code": "AZ",
    "country_name": "Azerbaijan",
    "state_code": "QBA",
    "type": "",
    "latitude": 41.1564242,
    "longitude": 48.4135021
  },
  {
    "id": 548,
    "name": "Qubadli District",
    "country_id": 16,
    "country_code": "AZ",
    "country_name": "Azerbaijan",
    "state_code": "QBI",
    "type": "",
    "latitude": 39.2713996,
    "longitude": 46.6354312
  },
  {
    "id": 588,
    "name": "Qusar District",
    "country_id": 16,
    "country_code": "AZ",
    "country_name": "Azerbaijan",
    "state_code": "QUS",
    "type": "",
    "latitude": 41.4266886,
    "longitude": 48.4345577
  },
  {
    "id": 557,
    "name": "Saatly District",
    "country_id": 16,
    "country_code": "AZ",
    "country_name": "Azerbaijan",
    "state_code": "SAT",
    "type": "",
    "latitude": 39.9095503,
    "longitude": 48.3595122
  },
  {
    "id": 565,
    "name": "Sabirabad District",
    "country_id": 16,
    "country_code": "AZ",
    "country_name": "Azerbaijan",
    "state_code": "SAB",
    "type": "",
    "latitude": 39.9870663,
    "longitude": 48.4692545
  },
  {
    "id": 522,
    "name": "Sadarak District",
    "country_id": 16,
    "country_code": "AZ",
    "country_name": "Azerbaijan",
    "state_code": "SAD",
    "type": "",
    "latitude": 39.7105114,
    "longitude": 44.8864277
  },
  {
    "id": 545,
    "name": "Salyan District",
    "country_id": 16,
    "country_code": "AZ",
    "country_name": "Azerbaijan",
    "state_code": "SAL",
    "type": "",
    "latitude": 28.3524811,
    "longitude": 82.12784
  },
  {
    "id": 536,
    "name": "Samukh District",
    "country_id": 16,
    "country_code": "AZ",
    "country_name": "Azerbaijan",
    "state_code": "SMX",
    "type": "",
    "latitude": 40.7604631,
    "longitude": 46.4063181
  },
  {
    "id": 591,
    "name": "Shabran District",
    "country_id": 16,
    "country_code": "AZ",
    "country_name": "Azerbaijan",
    "state_code": "SBN",
    "type": "",
    "latitude": 41.2228376,
    "longitude": 48.8457304
  },
  {
    "id": 579,
    "name": "Shahbuz District",
    "country_id": 16,
    "country_code": "AZ",
    "country_name": "Azerbaijan",
    "state_code": "SAH",
    "type": "",
    "latitude": 39.4452103,
    "longitude": 45.6568009
  },
  {
    "id": 518,
    "name": "Shaki",
    "country_id": 16,
    "country_code": "AZ",
    "country_name": "Azerbaijan",
    "state_code": "SA",
    "type": "",
    "latitude": 41.1974753,
    "longitude": 47.1571241
  },
  {
    "id": 586,
    "name": "Shaki District",
    "country_id": 16,
    "country_code": "AZ",
    "country_name": "Azerbaijan",
    "state_code": "SAK",
    "type": "",
    "latitude": 41.1134662,
    "longitude": 47.1316927
  },
  {
    "id": 529,
    "name": "Shamakhi District",
    "country_id": 16,
    "country_code": "AZ",
    "country_name": "Azerbaijan",
    "state_code": "SMI",
    "type": "",
    "latitude": 40.6318731,
    "longitude": 48.6363801
  },
  {
    "id": 583,
    "name": "Shamkir District",
    "country_id": 16,
    "country_code": "AZ",
    "country_name": "Azerbaijan",
    "state_code": "SKR",
    "type": "",
    "latitude": 40.8288144,
    "longitude": 46.0166879
  },
  {
    "id": 535,
    "name": "Sharur District",
    "country_id": 16,
    "country_code": "AZ",
    "country_name": "Azerbaijan",
    "state_code": "SAR",
    "type": "",
    "latitude": 39.5536332,
    "longitude": 44.984568
  },
  {
    "id": 520,
    "name": "Shirvan",
    "country_id": 16,
    "country_code": "AZ",
    "country_name": "Azerbaijan",
    "state_code": "SR",
    "type": "",
    "latitude": 39.9469707,
    "longitude": 48.9223919
  },
  {
    "id": 592,
    "name": "Shusha District",
    "country_id": 16,
    "country_code": "AZ",
    "country_name": "Azerbaijan",
    "state_code": "SUS",
    "type": "",
    "latitude": 39.7537438,
    "longitude": 46.7464755
  },
  {
    "id": 584,
    "name": "Siazan District",
    "country_id": 16,
    "country_code": "AZ",
    "country_name": "Azerbaijan",
    "state_code": "SIY",
    "type": "",
    "latitude": 41.0783833,
    "longitude": 49.1118477
  },
  {
    "id": 582,
    "name": "Sumqayit",
    "country_id": 16,
    "country_code": "AZ",
    "country_name": "Azerbaijan",
    "state_code": "SM",
    "type": "",
    "latitude": 40.5854765,
    "longitude": 49.6317411
  },
  {
    "id": 519,
    "name": "Tartar District",
    "country_id": 16,
    "country_code": "AZ",
    "country_name": "Azerbaijan",
    "state_code": "TAR",
    "type": "",
    "latitude": 40.3443875,
    "longitude": 46.9376519
  },
  {
    "id": 533,
    "name": "Tovuz District",
    "country_id": 16,
    "country_code": "AZ",
    "country_name": "Azerbaijan",
    "state_code": "TOV",
    "type": "",
    "latitude": 40.9954523,
    "longitude": 45.6165907
  },
  {
    "id": 539,
    "name": "Ujar District",
    "country_id": 16,
    "country_code": "AZ",
    "country_name": "Azerbaijan",
    "state_code": "UCA",
    "type": "",
    "latitude": 40.5067525,
    "longitude": 47.6489641
  },
  {
    "id": 550,
    "name": "Yardymli District",
    "country_id": 16,
    "country_code": "AZ",
    "country_name": "Azerbaijan",
    "state_code": "YAR",
    "type": "",
    "latitude": 38.9058917,
    "longitude": 48.2496127
  },
  {
    "id": 538,
    "name": "Yevlakh",
    "country_id": 16,
    "country_code": "AZ",
    "country_name": "Azerbaijan",
    "state_code": "YE",
    "type": "",
    "latitude": 40.6196638,
    "longitude": 47.1500324
  },
  {
    "id": 523,
    "name": "Yevlakh District",
    "country_id": 16,
    "country_code": "AZ",
    "country_name": "Azerbaijan",
    "state_code": "YEV",
    "type": "",
    "latitude": 40.6196638,
    "longitude": 47.1500324
  },
  {
    "id": 581,
    "name": "Zangilan District",
    "country_id": 16,
    "country_code": "AZ",
    "country_name": "Azerbaijan",
    "state_code": "ZAN",
    "type": "",
    "latitude": 39.0856899,
    "longitude": 46.6524728
  },
  {
    "id": 566,
    "name": "Zaqatala District",
    "country_id": 16,
    "country_code": "AZ",
    "country_name": "Azerbaijan",
    "state_code": "ZAQ",
    "type": "",
    "latitude": 41.5906889,
    "longitude": 46.7240373
  },
  {
    "id": 576,
    "name": "Zardab District",
    "country_id": 16,
    "country_code": "AZ",
    "country_name": "Azerbaijan",
    "state_code": "ZAR",
    "type": "",
    "latitude": 40.2148114,
    "longitude": 47.714944
  },
  {
    "id": 1992,
    "name": "Capital Governorate",
    "country_id": 18,
    "country_code": "BH",
    "country_name": "Bahrain",
    "state_code": 13,
    "type": "",
    "latitude": "",
    "longitude": ""
  },
  {
    "id": 1996,
    "name": "Central Governorate",
    "country_id": 18,
    "country_code": "BH",
    "country_name": "Bahrain",
    "state_code": 16,
    "type": "",
    "latitude": 26.1426093,
    "longitude": 50.5653294
  },
  {
    "id": 1995,
    "name": "Muharraq Governorate",
    "country_id": 18,
    "country_code": "BH",
    "country_name": "Bahrain",
    "state_code": 15,
    "type": "",
    "latitude": 26.2685653,
    "longitude": 50.6482517
  },
  {
    "id": 1994,
    "name": "Northern Governorate",
    "country_id": 18,
    "country_code": "BH",
    "country_name": "Bahrain",
    "state_code": 17,
    "type": "",
    "latitude": 26.1551914,
    "longitude": 50.4825173
  },
  {
    "id": 1993,
    "name": "Southern Governorate",
    "country_id": 18,
    "country_code": "BH",
    "country_name": "Bahrain",
    "state_code": 14,
    "type": "",
    "latitude": 25.9381018,
    "longitude": 50.5756887
  },
  {
    "id": 796,
    "name": "Bagerhat District",
    "country_id": 19,
    "country_code": "BD",
    "country_name": "Bangladesh",
    "state_code": "05",
    "type": "",
    "latitude": 22.6602436,
    "longitude": 89.7895478
  },
  {
    "id": 802,
    "name": "Bahadia",
    "country_id": 19,
    "country_code": "BD",
    "country_name": "Bangladesh",
    "state_code": 33,
    "type": "",
    "latitude": 23.7898712,
    "longitude": 90.1671483
  },
  {
    "id": 752,
    "name": "Bandarban District",
    "country_id": 19,
    "country_code": "BD",
    "country_name": "Bangladesh",
    "state_code": "01",
    "type": "",
    "latitude": 21.8311002,
    "longitude": 92.3686321
  },
  {
    "id": 784,
    "name": "Barguna District",
    "country_id": 19,
    "country_code": "BD",
    "country_name": "Bangladesh",
    "state_code": "02",
    "type": "",
    "latitude": 22.0952915,
    "longitude": 90.1120696
  },
  {
    "id": 818,
    "name": "Barisal District",
    "country_id": 19,
    "country_code": "BD",
    "country_name": "Bangladesh",
    "state_code": "06",
    "type": "",
    "latitude": 22.7022098,
    "longitude": 90.3696316
  },
  {
    "id": 807,
    "name": "Barisal Division",
    "country_id": 19,
    "country_code": "BD",
    "country_name": "Bangladesh",
    "state_code": "A",
    "type": "",
    "latitude": 22.3811131,
    "longitude": 90.3371889
  },
  {
    "id": 756,
    "name": "Bhola District",
    "country_id": 19,
    "country_code": "BD",
    "country_name": "Bangladesh",
    "state_code": "07",
    "type": "",
    "latitude": 22.1785315,
    "longitude": 90.7101023
  },
  {
    "id": 797,
    "name": "Bogra District",
    "country_id": 19,
    "country_code": "BD",
    "country_name": "Bangladesh",
    "state_code": "03",
    "type": "",
    "latitude": 24.8510402,
    "longitude": 89.3697225
  },
  {
    "id": 810,
    "name": "Brahmanbaria District",
    "country_id": 19,
    "country_code": "BD",
    "country_name": "Bangladesh",
    "state_code": "04",
    "type": "",
    "latitude": 23.9608181,
    "longitude": 91.1115014
  },
  {
    "id": 768,
    "name": "Chandpur District",
    "country_id": 19,
    "country_code": "BD",
    "country_name": "Bangladesh",
    "state_code": "09",
    "type": "",
    "latitude": 23.2513148,
    "longitude": 90.8517846
  },
  {
    "id": 761,
    "name": "Chapai Nawabganj District",
    "country_id": 19,
    "country_code": "BD",
    "country_name": "Bangladesh",
    "state_code": 45,
    "type": "",
    "latitude": 24.7413111,
    "longitude": 88.2912069
  },
  {
    "id": 785,
    "name": "Chittagong District",
    "country_id": 19,
    "country_code": "BD",
    "country_name": "Bangladesh",
    "state_code": 10,
    "type": "",
    "latitude": 22.5150105,
    "longitude": 91.7538817
  },
  {
    "id": 803,
    "name": "Chittagong Division",
    "country_id": 19,
    "country_code": "BD",
    "country_name": "Bangladesh",
    "state_code": "B",
    "type": "",
    "latitude": 23.1793157,
    "longitude": 91.9881527
  },
  {
    "id": 788,
    "name": "Chuadanga District",
    "country_id": 19,
    "country_code": "BD",
    "country_name": "Bangladesh",
    "state_code": 12,
    "type": "",
    "latitude": 23.6160512,
    "longitude": 88.8263006
  },
  {
    "id": 763,
    "name": "Comilla District",
    "country_id": 19,
    "country_code": "BD",
    "country_name": "Bangladesh",
    "state_code": "08",
    "type": "",
    "latitude": 23.4575667,
    "longitude": 91.1808996
  },
  {
    "id": 751,
    "name": "Cox's Bazar District",
    "country_id": 19,
    "country_code": "BD",
    "country_name": "Bangladesh",
    "state_code": 11,
    "type": "",
    "latitude": 21.5640626,
    "longitude": 92.0282129
  },
  {
    "id": 771,
    "name": "Dhaka District",
    "country_id": 19,
    "country_code": "BD",
    "country_name": "Bangladesh",
    "state_code": 13,
    "type": "",
    "latitude": 23.810514,
    "longitude": 90.3371889
  },
  {
    "id": 760,
    "name": "Dhaka Division",
    "country_id": 19,
    "country_code": "BD",
    "country_name": "Bangladesh",
    "state_code": "C",
    "type": "",
    "latitude": 23.9535742,
    "longitude": 90.1494988
  },
  {
    "id": 783,
    "name": "Dinajpur District",
    "country_id": 19,
    "country_code": "BD",
    "country_name": "Bangladesh",
    "state_code": 14,
    "type": "",
    "latitude": 25.6279123,
    "longitude": 88.6331758
  },
  {
    "id": 762,
    "name": "Faridpur District",
    "country_id": 19,
    "country_code": "BD",
    "country_name": "Bangladesh",
    "state_code": 15,
    "type": "",
    "latitude": 23.5423919,
    "longitude": 89.6308921
  },
  {
    "id": 816,
    "name": "Feni District",
    "country_id": 19,
    "country_code": "BD",
    "country_name": "Bangladesh",
    "state_code": 16,
    "type": "",
    "latitude": 22.9408784,
    "longitude": 91.4066646
  },
  {
    "id": 795,
    "name": "Gaibandha District",
    "country_id": 19,
    "country_code": "BD",
    "country_name": "Bangladesh",
    "state_code": 19,
    "type": "",
    "latitude": 25.3296928,
    "longitude": 89.5429652
  },
  {
    "id": 798,
    "name": "Gazipur District",
    "country_id": 19,
    "country_code": "BD",
    "country_name": "Bangladesh",
    "state_code": 18,
    "type": "",
    "latitude": 24.0958171,
    "longitude": 90.4125181
  },
  {
    "id": 792,
    "name": "Gopalganj District",
    "country_id": 19,
    "country_code": "BD",
    "country_name": "Bangladesh",
    "state_code": 17,
    "type": "",
    "latitude": 26.4831584,
    "longitude": 84.43655
  },
  {
    "id": 805,
    "name": "Habiganj District",
    "country_id": 19,
    "country_code": "BD",
    "country_name": "Bangladesh",
    "state_code": 20,
    "type": "",
    "latitude": 24.4771236,
    "longitude": 91.4506565
  },
  {
    "id": 808,
    "name": "Jamalpur District",
    "country_id": 19,
    "country_code": "BD",
    "country_name": "Bangladesh",
    "state_code": 21,
    "type": "",
    "latitude": 25.0830926,
    "longitude": 89.7853218
  },
  {
    "id": 757,
    "name": "Jessore District",
    "country_id": 19,
    "country_code": "BD",
    "country_name": "Bangladesh",
    "state_code": 22,
    "type": "",
    "latitude": 23.1634014,
    "longitude": 89.2181664
  },
  {
    "id": 778,
    "name": "Jhalokati District",
    "country_id": 19,
    "country_code": "BD",
    "country_name": "Bangladesh",
    "state_code": 25,
    "type": "",
    "latitude": 22.57208,
    "longitude": 90.1869644
  },
  {
    "id": 789,
    "name": "Jhenaidah District",
    "country_id": 19,
    "country_code": "BD",
    "country_name": "Bangladesh",
    "state_code": 23,
    "type": "",
    "latitude": 23.5449873,
    "longitude": 89.1726031
  },
  {
    "id": 806,
    "name": "Joypurhat District",
    "country_id": 19,
    "country_code": "BD",
    "country_name": "Bangladesh",
    "state_code": 24,
    "type": "",
    "latitude": 25.0947349,
    "longitude": 89.0944937
  },
  {
    "id": 786,
    "name": "Khagrachari District",
    "country_id": 19,
    "country_code": "BD",
    "country_name": "Bangladesh",
    "state_code": 29,
    "type": "",
    "latitude": 23.1321751,
    "longitude": 91.949021
  },
  {
    "id": 811,
    "name": "Khulna District",
    "country_id": 19,
    "country_code": "BD",
    "country_name": "Bangladesh",
    "state_code": 27,
    "type": "",
    "latitude": 22.6737735,
    "longitude": 89.3966581
  },
  {
    "id": 775,
    "name": "Khulna Division",
    "country_id": 19,
    "country_code": "BD",
    "country_name": "Bangladesh",
    "state_code": "D",
    "type": "",
    "latitude": 22.8087816,
    "longitude": 89.2467191
  },
  {
    "id": 779,
    "name": "Kishoreganj District",
    "country_id": 19,
    "country_code": "BD",
    "country_name": "Bangladesh",
    "state_code": 26,
    "type": "",
    "latitude": 24.4260457,
    "longitude": 90.9820668
  },
  {
    "id": 793,
    "name": "Kurigram District",
    "country_id": 19,
    "country_code": "BD",
    "country_name": "Bangladesh",
    "state_code": 28,
    "type": "",
    "latitude": 25.8072414,
    "longitude": 89.6294746
  },
  {
    "id": 774,
    "name": "Kushtia District",
    "country_id": 19,
    "country_code": "BD",
    "country_name": "Bangladesh",
    "state_code": 30,
    "type": "",
    "latitude": 23.8906995,
    "longitude": 89.1099368
  },
  {
    "id": 819,
    "name": "Lakshmipur District",
    "country_id": 19,
    "country_code": "BD",
    "country_name": "Bangladesh",
    "state_code": 31,
    "type": "",
    "latitude": 22.9446744,
    "longitude": 90.8281907
  },
  {
    "id": 780,
    "name": "Lalmonirhat District",
    "country_id": 19,
    "country_code": "BD",
    "country_name": "Bangladesh",
    "state_code": 32,
    "type": "",
    "latitude": 25.9923398,
    "longitude": 89.2847251
  },
  {
    "id": 817,
    "name": "Madaripur District",
    "country_id": 19,
    "country_code": "BD",
    "country_name": "Bangladesh",
    "state_code": 36,
    "type": "",
    "latitude": 23.2393346,
    "longitude": 90.1869644
  },
  {
    "id": 776,
    "name": "Meherpur District",
    "country_id": 19,
    "country_code": "BD",
    "country_name": "Bangladesh",
    "state_code": 39,
    "type": "",
    "latitude": 23.8051991,
    "longitude": 88.6723578
  },
  {
    "id": 794,
    "name": "Moulvibazar District",
    "country_id": 19,
    "country_code": "BD",
    "country_name": "Bangladesh",
    "state_code": 38,
    "type": "",
    "latitude": 24.3095344,
    "longitude": 91.7314903
  },
  {
    "id": 790,
    "name": "Munshiganj District",
    "country_id": 19,
    "country_code": "BD",
    "country_name": "Bangladesh",
    "state_code": 35,
    "type": "",
    "latitude": 23.4980931,
    "longitude": 90.4126621
  },
  {
    "id": 766,
    "name": "Mymensingh District",
    "country_id": 19,
    "country_code": "BD",
    "country_name": "Bangladesh",
    "state_code": 34,
    "type": "",
    "latitude": 24.7538575,
    "longitude": 90.4072919
  },
  {
    "id": 758,
    "name": "Mymensingh Division",
    "country_id": 19,
    "country_code": "BD",
    "country_name": "Bangladesh",
    "state_code": "H",
    "type": "",
    "latitude": 24.71362,
    "longitude": 90.4502368
  },
  {
    "id": 814,
    "name": "Naogaon District",
    "country_id": 19,
    "country_code": "BD",
    "country_name": "Bangladesh",
    "state_code": 48,
    "type": "",
    "latitude": 24.9131597,
    "longitude": 88.7530952
  },
  {
    "id": 769,
    "name": "Narail District",
    "country_id": 19,
    "country_code": "BD",
    "country_name": "Bangladesh",
    "state_code": 43,
    "type": "",
    "latitude": 23.1162929,
    "longitude": 89.5840404
  },
  {
    "id": 770,
    "name": "Narayanganj District",
    "country_id": 19,
    "country_code": "BD",
    "country_name": "Bangladesh",
    "state_code": 40,
    "type": "",
    "latitude": 23.7146601,
    "longitude": 90.563609
  },
  {
    "id": 787,
    "name": "Natore District",
    "country_id": 19,
    "country_code": "BD",
    "country_name": "Bangladesh",
    "state_code": 44,
    "type": "",
    "latitude": 24.410243,
    "longitude": 89.0076177
  },
  {
    "id": 764,
    "name": "Netrokona District",
    "country_id": 19,
    "country_code": "BD",
    "country_name": "Bangladesh",
    "state_code": 41,
    "type": "",
    "latitude": 24.8103284,
    "longitude": 90.8656415
  },
  {
    "id": 772,
    "name": "Nilphamari District",
    "country_id": 19,
    "country_code": "BD",
    "country_name": "Bangladesh",
    "state_code": 46,
    "type": "",
    "latitude": 25.8482798,
    "longitude": 88.9414134
  },
  {
    "id": 815,
    "name": "Noakhali District",
    "country_id": 19,
    "country_code": "BD",
    "country_name": "Bangladesh",
    "state_code": 47,
    "type": "",
    "latitude": 22.8723789,
    "longitude": 91.0973184
  },
  {
    "id": 754,
    "name": "Pabna District",
    "country_id": 19,
    "country_code": "BD",
    "country_name": "Bangladesh",
    "state_code": 49,
    "type": "",
    "latitude": 24.158505,
    "longitude": 89.4480718
  },
  {
    "id": 800,
    "name": "Panchagarh District",
    "country_id": 19,
    "country_code": "BD",
    "country_name": "Bangladesh",
    "state_code": 52,
    "type": "",
    "latitude": 26.2708705,
    "longitude": 88.5951751
  },
  {
    "id": 777,
    "name": "Patuakhali District",
    "country_id": 19,
    "country_code": "BD",
    "country_name": "Bangladesh",
    "state_code": 51,
    "type": "",
    "latitude": 22.2248632,
    "longitude": 90.4547503
  },
  {
    "id": 791,
    "name": "Pirojpur District",
    "country_id": 19,
    "country_code": "BD",
    "country_name": "Bangladesh",
    "state_code": 50,
    "type": "",
    "latitude": 22.5790744,
    "longitude": 89.9759264
  },
  {
    "id": 773,
    "name": "Rajbari District",
    "country_id": 19,
    "country_code": "BD",
    "country_name": "Bangladesh",
    "state_code": 53,
    "type": "",
    "latitude": 23.715134,
    "longitude": 89.5874819
  },
  {
    "id": 813,
    "name": "Rajshahi District",
    "country_id": 19,
    "country_code": "BD",
    "country_name": "Bangladesh",
    "state_code": 54,
    "type": "",
    "latitude": 24.3733087,
    "longitude": 88.6048716
  },
  {
    "id": 753,
    "name": "Rajshahi Division",
    "country_id": 19,
    "country_code": "BD",
    "country_name": "Bangladesh",
    "state_code": "E",
    "type": "",
    "latitude": 24.7105776,
    "longitude": 88.9413865
  },
  {
    "id": 809,
    "name": "Rangamati Hill District",
    "country_id": 19,
    "country_code": "BD",
    "country_name": "Bangladesh",
    "state_code": 56,
    "type": "",
    "latitude": 22.7324173,
    "longitude": 92.2985134
  },
  {
    "id": 759,
    "name": "Rangpur District",
    "country_id": 19,
    "country_code": "BD",
    "country_name": "Bangladesh",
    "state_code": 55,
    "type": "",
    "latitude": 25.7467925,
    "longitude": 89.2508335
  },
  {
    "id": 750,
    "name": "Rangpur Division",
    "country_id": 19,
    "country_code": "BD",
    "country_name": "Bangladesh",
    "state_code": "F",
    "type": "",
    "latitude": 25.8483388,
    "longitude": 88.9413865
  },
  {
    "id": 799,
    "name": "Satkhira District",
    "country_id": 19,
    "country_code": "BD",
    "country_name": "Bangladesh",
    "state_code": 58,
    "type": "",
    "latitude": 22.3154812,
    "longitude": 89.1114525
  },
  {
    "id": 801,
    "name": "Shariatpur District",
    "country_id": 19,
    "country_code": "BD",
    "country_name": "Bangladesh",
    "state_code": 62,
    "type": "",
    "latitude": 23.2423214,
    "longitude": 90.4347711
  },
  {
    "id": 755,
    "name": "Sherpur District",
    "country_id": 19,
    "country_code": "BD",
    "country_name": "Bangladesh",
    "state_code": 57,
    "type": "",
    "latitude": 25.0746235,
    "longitude": 90.1494904
  },
  {
    "id": 781,
    "name": "Sirajganj District",
    "country_id": 19,
    "country_code": "BD",
    "country_name": "Bangladesh",
    "state_code": 59,
    "type": "",
    "latitude": 24.3141115,
    "longitude": 89.5699615
  },
  {
    "id": 812,
    "name": "Sunamganj District",
    "country_id": 19,
    "country_code": "BD",
    "country_name": "Bangladesh",
    "state_code": 61,
    "type": "",
    "latitude": 25.0714535,
    "longitude": 91.3991627
  },
  {
    "id": 767,
    "name": "Sylhet District",
    "country_id": 19,
    "country_code": "BD",
    "country_name": "Bangladesh",
    "state_code": 60,
    "type": "",
    "latitude": 24.8993357,
    "longitude": 91.8700473
  },
  {
    "id": 765,
    "name": "Sylhet Division",
    "country_id": 19,
    "country_code": "BD",
    "country_name": "Bangladesh",
    "state_code": "G",
    "type": "",
    "latitude": 24.7049811,
    "longitude": 91.6760691
  },
  {
    "id": 782,
    "name": "Tangail District",
    "country_id": 19,
    "country_code": "BD",
    "country_name": "Bangladesh",
    "state_code": 63,
    "type": "",
    "latitude": 24.3917427,
    "longitude": 89.9948257
  },
  {
    "id": 804,
    "name": "Thakurgaon District",
    "country_id": 19,
    "country_code": "BD",
    "country_name": "Bangladesh",
    "state_code": 64,
    "type": "",
    "latitude": 26.0418392,
    "longitude": 88.4282616
  },
  {
    "id": 1228,
    "name": "Christ Church",
    "country_id": 20,
    "country_code": "BB",
    "country_name": "Barbados",
    "state_code": "01",
    "type": "",
    "latitude": 36.0060407,
    "longitude": -95.921121
  },
  {
    "id": 1229,
    "name": "Saint Andrew",
    "country_id": 20,
    "country_code": "BB",
    "country_name": "Barbados",
    "state_code": "02",
    "type": "",
    "latitude": "",
    "longitude": ""
  },
  {
    "id": 1226,
    "name": "Saint George",
    "country_id": 20,
    "country_code": "BB",
    "country_name": "Barbados",
    "state_code": "03",
    "type": "",
    "latitude": 37.0965278,
    "longitude": -113.5684164
  },
  {
    "id": 1224,
    "name": "Saint James",
    "country_id": 20,
    "country_code": "BB",
    "country_name": "Barbados",
    "state_code": "04",
    "type": "",
    "latitude": 48.523566,
    "longitude": -1.3237885
  },
  {
    "id": 1227,
    "name": "Saint John",
    "country_id": 20,
    "country_code": "BB",
    "country_name": "Barbados",
    "state_code": "05",
    "type": "",
    "latitude": 45.2733153,
    "longitude": -66.063308
  },
  {
    "id": 1223,
    "name": "Saint Joseph",
    "country_id": 20,
    "country_code": "BB",
    "country_name": "Barbados",
    "state_code": "06",
    "type": "",
    "latitude": 39.7674578,
    "longitude": -94.846681
  },
  {
    "id": 1221,
    "name": "Saint Lucy",
    "country_id": 20,
    "country_code": "BB",
    "country_name": "Barbados",
    "state_code": "07",
    "type": "",
    "latitude": 38.7614625,
    "longitude": -77.4491439
  },
  {
    "id": 1230,
    "name": "Saint Michael",
    "country_id": 20,
    "country_code": "BB",
    "country_name": "Barbados",
    "state_code": "08",
    "type": "",
    "latitude": 36.035977,
    "longitude": -95.849052
  },
  {
    "id": 1222,
    "name": "Saint Peter",
    "country_id": 20,
    "country_code": "BB",
    "country_name": "Barbados",
    "state_code": "09",
    "type": "",
    "latitude": 37.0827119,
    "longitude": -94.517125
  },
  {
    "id": 1220,
    "name": "Saint Philip",
    "country_id": 20,
    "country_code": "BB",
    "country_name": "Barbados",
    "state_code": 10,
    "type": "",
    "latitude": 35.233114,
    "longitude": -89.4364042
  },
  {
    "id": 1225,
    "name": "Saint Thomas",
    "country_id": 20,
    "country_code": "BB",
    "country_name": "Barbados",
    "state_code": 11,
    "type": "",
    "latitude": 18.3380965,
    "longitude": -64.8940946
  },
  {
    "id": 2959,
    "name": "Brest Region",
    "country_id": 21,
    "country_code": "BY",
    "country_name": "Belarus",
    "state_code": "BR",
    "type": "",
    "latitude": 52.5296641,
    "longitude": 25.460648
  },
  {
    "id": 2955,
    "name": "Gomel Region",
    "country_id": 21,
    "country_code": "BY",
    "country_name": "Belarus",
    "state_code": "HO",
    "type": "",
    "latitude": 52.1648754,
    "longitude": 29.1333251
  },
  {
    "id": 2956,
    "name": "Grodno Region",
    "country_id": 21,
    "country_code": "BY",
    "country_name": "Belarus",
    "state_code": "HR",
    "type": "",
    "latitude": 53.6599945,
    "longitude": 25.3448571
  },
  {
    "id": 2958,
    "name": "Minsk",
    "country_id": 21,
    "country_code": "BY",
    "country_name": "Belarus",
    "state_code": "HM",
    "type": "",
    "latitude": 53.9006011,
    "longitude": 27.558972
  },
  {
    "id": 2957,
    "name": "Minsk Region",
    "country_id": 21,
    "country_code": "BY",
    "country_name": "Belarus",
    "state_code": "MI",
    "type": "",
    "latitude": 54.1067889,
    "longitude": 27.4129245
  },
  {
    "id": 2954,
    "name": "Mogilev Region",
    "country_id": 21,
    "country_code": "BY",
    "country_name": "Belarus",
    "state_code": "MA",
    "type": "",
    "latitude": 53.5101791,
    "longitude": 30.4006444
  },
  {
    "id": 2960,
    "name": "Vitebsk Region",
    "country_id": 21,
    "country_code": "BY",
    "country_name": "Belarus",
    "state_code": "VI",
    "type": "",
    "latitude": 55.2959833,
    "longitude": 28.7583627
  },
  {
    "id": 1381,
    "name": "Antwerp",
    "country_id": 22,
    "country_code": "BE",
    "country_name": "Belgium",
    "state_code": "VAN",
    "type": "",
    "latitude": 51.2194475,
    "longitude": 4.4024643
  },
  {
    "id": 1376,
    "name": "Brussels-Capital Region",
    "country_id": 22,
    "country_code": "BE",
    "country_name": "Belgium",
    "state_code": "BRU",
    "type": "",
    "latitude": 50.8503463,
    "longitude": 4.3517211
  },
  {
    "id": 1377,
    "name": "East Flanders",
    "country_id": 22,
    "country_code": "BE",
    "country_name": "Belgium",
    "state_code": "VOV",
    "type": "",
    "latitude": 51.0362101,
    "longitude": 3.7373124
  },
  {
    "id": 1373,
    "name": "Flanders",
    "country_id": 22,
    "country_code": "BE",
    "country_name": "Belgium",
    "state_code": "VLG",
    "type": "",
    "latitude": 51.0108706,
    "longitude": 3.7264613
  },
  {
    "id": 1374,
    "name": "Flemish Brabant",
    "country_id": 22,
    "country_code": "BE",
    "country_name": "Belgium",
    "state_code": "VBR",
    "type": "",
    "latitude": 50.8815434,
    "longitude": 4.564597
  },
  {
    "id": 1375,
    "name": "Hainaut",
    "country_id": 22,
    "country_code": "BE",
    "country_name": "Belgium",
    "state_code": "WHT",
    "type": "",
    "latitude": 50.5257076,
    "longitude": 4.0621017
  },
  {
    "id": 1384,
    "name": "Liège",
    "country_id": 22,
    "country_code": "BE",
    "country_name": "Belgium",
    "state_code": "WLG",
    "type": "",
    "latitude": 50.6325574,
    "longitude": 5.5796662
  },
  {
    "id": 1372,
    "name": "Limburg",
    "country_id": 22,
    "country_code": "BE",
    "country_name": "Belgium",
    "state_code": "VLI",
    "type": "",
    "latitude": "",
    "longitude": ""
  },
  {
    "id": 1379,
    "name": "Luxembourg",
    "country_id": 22,
    "country_code": "BE",
    "country_name": "Belgium",
    "state_code": "WLX",
    "type": "",
    "latitude": 49.815273,
    "longitude": 6.129583
  },
  {
    "id": 1378,
    "name": "Namur",
    "country_id": 22,
    "country_code": "BE",
    "country_name": "Belgium",
    "state_code": "WNA",
    "type": "",
    "latitude": 50.4673883,
    "longitude": 4.8719854
  },
  {
    "id": 1380,
    "name": "Wallonia",
    "country_id": 22,
    "country_code": "BE",
    "country_name": "Belgium",
    "state_code": "WAL",
    "type": "",
    "latitude": 50.4175637,
    "longitude": 4.4510066
  },
  {
    "id": 1382,
    "name": "Walloon Brabant",
    "country_id": 22,
    "country_code": "BE",
    "country_name": "Belgium",
    "state_code": "WBR",
    "type": "",
    "latitude": 50.633241,
    "longitude": 4.524315
  },
  {
    "id": 1383,
    "name": "West Flanders",
    "country_id": 22,
    "country_code": "BE",
    "country_name": "Belgium",
    "state_code": "VWV",
    "type": "",
    "latitude": 40.0179334,
    "longitude": -105.2806733
  },
  {
    "id": 264,
    "name": "Belize District",
    "country_id": 23,
    "country_code": "BZ",
    "country_name": "Belize",
    "state_code": "BZ",
    "type": "",
    "latitude": 17.5677679,
    "longitude": -88.4016041
  },
  {
    "id": 269,
    "name": "Cayo District",
    "country_id": 23,
    "country_code": "BZ",
    "country_name": "Belize",
    "state_code": "CY",
    "type": "",
    "latitude": 17.0984445,
    "longitude": -88.9413865
  },
  {
    "id": 266,
    "name": "Corozal District",
    "country_id": 23,
    "country_code": "BZ",
    "country_name": "Belize",
    "state_code": "CZL",
    "type": "",
    "latitude": 18.1349238,
    "longitude": -88.2461183
  },
  {
    "id": 268,
    "name": "Orange Walk District",
    "country_id": 23,
    "country_code": "BZ",
    "country_name": "Belize",
    "state_code": "OW",
    "type": "",
    "latitude": 17.760353,
    "longitude": -88.864698
  },
  {
    "id": 265,
    "name": "Stann Creek District",
    "country_id": 23,
    "country_code": "BZ",
    "country_name": "Belize",
    "state_code": "SC",
    "type": "",
    "latitude": 16.8116631,
    "longitude": -88.4016041
  },
  {
    "id": 267,
    "name": "Toledo District",
    "country_id": 23,
    "country_code": "BZ",
    "country_name": "Belize",
    "state_code": "TOL",
    "type": "",
    "latitude": 16.2491923,
    "longitude": -88.864698
  },
  {
    "id": 3077,
    "name": "Alibori Department",
    "country_id": 24,
    "country_code": "BJ",
    "country_name": "Benin",
    "state_code": "AL",
    "type": "",
    "latitude": 10.9681093,
    "longitude": 2.7779813
  },
  {
    "id": 3076,
    "name": "Atakora Department",
    "country_id": 24,
    "country_code": "BJ",
    "country_name": "Benin",
    "state_code": "AK",
    "type": "",
    "latitude": 10.7954931,
    "longitude": 1.6760691
  },
  {
    "id": 3079,
    "name": "Atlantique Department",
    "country_id": 24,
    "country_code": "BJ",
    "country_name": "Benin",
    "state_code": "AQ",
    "type": "",
    "latitude": 6.6588391,
    "longitude": 2.2236667
  },
  {
    "id": 3078,
    "name": "Borgou Department",
    "country_id": 24,
    "country_code": "BJ",
    "country_name": "Benin",
    "state_code": "BO",
    "type": "",
    "latitude": 9.5340864,
    "longitude": 2.7779813
  },
  {
    "id": 3070,
    "name": "Collines Department",
    "country_id": 24,
    "country_code": "BJ",
    "country_name": "Benin",
    "state_code": "CO",
    "type": "",
    "latitude": 8.3022297,
    "longitude": 2.302446
  },
  {
    "id": 3072,
    "name": "Donga Department",
    "country_id": 24,
    "country_code": "BJ",
    "country_name": "Benin",
    "state_code": "DO",
    "type": "",
    "latitude": 9.7191867,
    "longitude": 1.6760691
  },
  {
    "id": 3071,
    "name": "Kouffo Department",
    "country_id": 24,
    "country_code": "BJ",
    "country_name": "Benin",
    "state_code": "KO",
    "type": "",
    "latitude": 7.0035894,
    "longitude": 1.7538817
  },
  {
    "id": 3081,
    "name": "Littoral Department",
    "country_id": 24,
    "country_code": "BJ",
    "country_name": "Benin",
    "state_code": "LI",
    "type": "",
    "latitude": 6.3806973,
    "longitude": 2.4406387
  },
  {
    "id": 3075,
    "name": "Mono Department",
    "country_id": 24,
    "country_code": "BJ",
    "country_name": "Benin",
    "state_code": "MO",
    "type": "",
    "latitude": 37.9218608,
    "longitude": -118.9528645
  },
  {
    "id": 3080,
    "name": "Ouémé Department",
    "country_id": 24,
    "country_code": "BJ",
    "country_name": "Benin",
    "state_code": "OU",
    "type": "",
    "latitude": 6.6148152,
    "longitude": 2.4999918
  },
  {
    "id": 3074,
    "name": "Plateau Department",
    "country_id": 24,
    "country_code": "BJ",
    "country_name": "Benin",
    "state_code": "PL",
    "type": "",
    "latitude": 7.3445141,
    "longitude": 2.539603
  },
  {
    "id": 3073,
    "name": "Zou Department",
    "country_id": 24,
    "country_code": "BJ",
    "country_name": "Benin",
    "state_code": "ZO",
    "type": "",
    "latitude": 7.3469268,
    "longitude": 2.0665197
  },
  {
    "id": 4860,
    "name": "Devonshire Parish",
    "country_id": 25,
    "country_code": "BM",
    "country_name": "Bermuda",
    "state_code": "DEV",
    "type": "",
    "latitude": 32.3038062,
    "longitude": -64.7606954
  },
  {
    "id": 4861,
    "name": "Hamilton Parish",
    "country_id": 25,
    "country_code": "BM",
    "country_name": "Bermuda",
    "state_code": "HA",
    "type": "",
    "latitude": 32.3449432,
    "longitude": -64.72365
  },
  {
    "id": 4863,
    "name": "Paget Parish",
    "country_id": 25,
    "country_code": "BM",
    "country_name": "Bermuda",
    "state_code": "PAG",
    "type": "",
    "latitude": 32.281074,
    "longitude": -64.7784787
  },
  {
    "id": 4864,
    "name": "Pembroke Parish",
    "country_id": 25,
    "country_code": "BM",
    "country_name": "Bermuda",
    "state_code": "PEM",
    "type": "",
    "latitude": 32.3007672,
    "longitude": -64.796263
  },
  {
    "id": 4866,
    "name": "Saint George's Parish",
    "country_id": 25,
    "country_code": "BM",
    "country_name": "Bermuda",
    "state_code": "SGE",
    "type": "",
    "latitude": 17.1257759,
    "longitude": -62.5619811
  },
  {
    "id": 4867,
    "name": "Sandys Parish",
    "country_id": 25,
    "country_code": "BM",
    "country_name": "Bermuda",
    "state_code": "SAN",
    "type": "",
    "latitude": 32.2999528,
    "longitude": -64.8674103
  },
  {
    "id": 4868,
    "name": "Smith's Parish,",
    "country_id": 25,
    "country_code": "BM",
    "country_name": "Bermuda",
    "state_code": "SMI",
    "type": "",
    "latitude": 32.3133966,
    "longitude": -64.7310588
  },
  {
    "id": 4869,
    "name": "Southampton Parish",
    "country_id": 25,
    "country_code": "BM",
    "country_name": "Bermuda",
    "state_code": "SOU",
    "type": "",
    "latitude": 32.2540095,
    "longitude": -64.8259058
  },
  {
    "id": 4870,
    "name": "Warwick Parish",
    "country_id": 25,
    "country_code": "BM",
    "country_name": "Bermuda",
    "state_code": "WAR",
    "type": "",
    "latitude": 32.2661534,
    "longitude": -64.8081198
  },
  {
    "id": 240,
    "name": "Bumthang District",
    "country_id": 26,
    "country_code": "BT",
    "country_name": "Bhutan",
    "state_code": 33,
    "type": "",
    "latitude": 27.641839,
    "longitude": 90.6773046
  },
  {
    "id": 239,
    "name": "Chukha District",
    "country_id": 26,
    "country_code": "BT",
    "country_name": "Bhutan",
    "state_code": 12,
    "type": "",
    "latitude": 27.0784304,
    "longitude": 89.4742177
  },
  {
    "id": 238,
    "name": "Dagana District",
    "country_id": 26,
    "country_code": "BT",
    "country_name": "Bhutan",
    "state_code": 22,
    "type": "",
    "latitude": 27.0322861,
    "longitude": 89.8879304
  },
  {
    "id": 229,
    "name": "Gasa District",
    "country_id": 26,
    "country_code": "BT",
    "country_name": "Bhutan",
    "state_code": "GA",
    "type": "",
    "latitude": 28.0185886,
    "longitude": 89.9253233
  },
  {
    "id": 232,
    "name": "Haa District",
    "country_id": 26,
    "country_code": "BT",
    "country_name": "Bhutan",
    "state_code": 13,
    "type": "",
    "latitude": 27.2651669,
    "longitude": 89.1705998
  },